University Name,Address,lat,long,geometry
"Northeastern University, Boston","Northeastern University, Boston, Massachusetts, United States",42.33907025,-71.08783833987422,POINT (-71.08783833987422 42.33907025)
University of Southern California,"University of Southern California, California, United States",34.020919,-118.285743,POINT (-118.285743 34.020919)
University at Buffalo SUNY,"University at Buffalo SUNY, New York, United States",43.00188805,-78.78521350495271,POINT (-78.78521350495271 43.00188805)
San Jose State University,"San Jose State University, California, United States",37.336793,-121.883572,POINT (-121.883572 37.336793)
Carnegie Mellon University,"Carnegie Mellon University, Pennsylvania, United States",40.796335,-77.865077,POINT (-77.865077 40.796335)
Illinois Institute of Technology,"Illinois Institute of Technology, Illinois, United States",41.832237,-88.095335,POINT (-88.095335 41.832237)
University of Florida,"University of Florida, Florida, United States",29.750244,-82.347051,POINT (-82.347051 29.750244)
"University of California, Los Angeles","University of California, Los Angeles, California, United States",34.02186895,-118.285857923125,POINT (-118.285857923125 34.02186895)
University of Toronto,"University of Toronto, Ontario, Canada",43.663461999999996,-79.39775966248058,POINT (-79.39775966248058 43.663461999999996)
Stony Brook University,"Stony Brook University, New York, United States",40.919156,-73.129346,POINT (-73.129346 40.919156)
University of Cincinnati,"University of Cincinnati, Ohio, United States",39.1318613,-84.51576195582436,POINT (-84.51576195582436 39.1318613)
New Jersey Institute of Technology,"New Jersey Institute of Technology, New Jersey, United States",40.1853951,-74.06068461018864,POINT (-74.06068461018864 40.1853951)
Rochester Institute of Technology,"Rochester Institute of Technology, New York, United States",40.747111,-73.995145,POINT (-73.995145 40.747111)
Stevens Institute of Technology,"Stevens Institute of Technology, New Jersey, United States",40.747111,-73.995145,POINT (-73.995145 40.747111)
Northwestern University,"Northwestern University, Illinois, United States",42.050724,-87.673937,POINT (-87.673937 42.050724)
Boston University,"Boston University, Massachusetts, United States",41.500293,-81.536607,POINT (-81.536607 41.500293)
Iowa State University,"Iowa State University, Iowa, United States",42.038658,-93.668974,POINT (-93.668974 42.038658)
University of North Texas,"University of North Texas, Texas, United States",30.284593,-97.734812,POINT (-97.734812 30.284593)
Duke University,"Duke University, North Carolina, United States",35.3239146,-80.76708485190528,POINT (-80.76708485190528 35.3239146)
"University of Michigan, Dearborn","University of Michigan, Dearborn, Michigan, United States",42.3172294,-83.23193935538828,POINT (-83.23193935538828 42.3172294)
York University,"York University, Toronto, Canada",43.7743325,-79.50027054016516,POINT (-79.50027054016516 43.7743325)
Oregon State University,"Oregon State University, Oregon, United States",42.18556,-122.69306,POINT (-122.69306 42.18556)
Toronto Metropolitan University,"Toronto Metropolitan University, Toronto, Canada",43.658534200000005,-79.37846742853738,POINT (-79.37846742853738 43.658534200000005)
Worcester Polytechnic Institute,"Worcester Polytechnic Institute, Massachusetts, United States",42.274315,-71.80845674552586,POINT (-71.80845674552586 42.274315)
San Francisco State University,"San Francisco State University, California, United States",37.723739,-122.47935,POINT (-122.47935 37.723739)
Wayne State University,"Wayne State University, Michigan, United States",42.35720515,-83.07094978691399,POINT (-83.07094978691399 42.35720515)
Kent State University,"Kent State University, Ohio, United States",41.15496575,-81.35171553989059,POINT (-81.35171553989059 41.15496575)
DePaul University,"DePaul University, Illinois, United States",41.942673049999996,-87.69205508219278,POINT (-87.69205508219278 41.942673049999996)
Imperial College London,"Imperial College London, London, United Kingdom",51.4989595,-0.17564069276310426,POINT (-0.1756406927631043 51.4989595)
Monash University,"Monash University, Victoria, Australia",-37.891977,145.144055,POINT (145.144055 -37.891977)
University of Texas at San Antonio,"University of Texas at San Antonio, Texas, United States",29.583331049999998,-98.6194450505688,POINT (-98.6194450505688 29.583331049999998)
Nanyang Technological University,"Nanyang Technological University, Singapore, Singapore",1.3484104000000001,103.68293320728537,POINT (103.68293320728537 1.3484104000000001)
University of Georgia,"University of Georgia, Georgia, United States",33.9404278,-83.37304904988295,POINT (-83.37304904988295 33.9404278)
Memorial University of Newfoundland,"Memorial University of Newfoundland, Newfoundland & Labrador, Canada",47.585607,-52.73635,POINT (-52.73635 47.585607)
Deakin University,"Deakin University, Victoria, Australia",-38.197767,144.297791,POINT (144.297791 -38.197767)
RMIT University,"RMIT University, Victoria, Australia",-37.80816075,144.96458315962926,POINT (144.96458315962926 -37.80816075)
University of Bridgeport,"University of Bridgeport, Connecticut, United States",41.18723,-73.19549,POINT (-73.19549 41.18723)
Technische Universität Darmstadt,"Technische Universität Darmstadt, Hesse, Germany",49.86115175,8.681943998674633,POINT (8.681943998674633 49.86115175)
The University of Edinburgh,"The University of Edinburgh, Edinburgh, United Kingdom",55.922904,-3.17506,POINT (-3.17506 55.922904)
Lawrence Technological University,"Lawrence Technological University, Michigan, United States",42.4752647,-83.25063727571097,POINT (-83.25063727571097 42.4752647)
University of Guelph,"University of Guelph, Ontario, Canada",43.535193,-80.21894225207431,POINT (-80.21894225207431 43.535193)
Friedrich-Alexander-Universität Erlangen-Nürnberg,"Friedrich-Alexander-Universität Erlangen-Nürnberg, Bavaria, Germany",49.60030465,11.016227770563523,POINT (11.016227770563523 49.60030465)
Laval University,"Laval University, Quebec, Canada",46.783774,-71.279587,POINT (-71.279587 46.783774)
Saarland University,"Saarland University, Saarland, Germany",49.25428530000001,7.04150707562534,POINT (7.04150707562534 49.25428530000001)
The University of Adelaide,"The University of Adelaide, South Australia, Australia",-34.92167,138.591482,POINT (138.591482 -34.92167)
University of Warwick,"University of Warwick, Coventry, United Kingdom",52.3813073,-1.5639569481637439,POINT (-1.5639569481637439 52.3813073)
"Curtin University, Perth","Curtin University, Perth, Western Australia, Australia",-31.954659,115.8634964439691,POINT (115.8634964439691 -31.954659)
Eindhoven University of Technology,"Eindhoven University of Technology, North Brabant, Netherlands",51.4486602,5.4903995655080475,POINT (5.4903995655080475 51.4486602)
University of Technology Sydney,"University of Technology Sydney, New South Wales, Australia",-33.88325365,151.20032937174193,POINT (151.20032937174193 -33.88325365)
"Long Island University, Brooklyn","Long Island University, Brooklyn, New York, United States",40.6911022,-73.98039648663554,POINT (-73.98039648663554 40.6911022)
King's College London,"King's College London, London, United Kingdom",51.503403199999994,-0.08946614662781002,POINT (-0.08946614662781 51.503403199999994)
University of Amsterdam,"University of Amsterdam, Amsterdam, Netherlands",52.36813335,4.889804155733945,POINT (4.889804155733945 52.36813335)
La Trobe University,"La Trobe University, Melbourne, Australia",-37.7170218,145.0439453,POINT (145.0439453 -37.7170218)
The University of Manchester,"The University of Manchester, Manchester, United Kingdom",53.454492,-2.219208,POINT (-2.219208 53.454492)
Chalmers University of Technology,"Chalmers University of Technology, Stockholms l'n, Sweden",65.61809,22.14011,POINT (22.14011 65.61809)
Macquarie University,"Macquarie University, New South Wales, Australia",-33.77400285,151.11276761415485,POINT (151.11276761415485 -33.77400285)
Florida Atlantic University,"Florida Atlantic University, Florida, United States",26.120145100000002,-80.14193545683685,POINT (-80.14193545683685 26.120145100000002)
Queen Mary University of London,"Queen Mary University of London, London, United Kingdom",51.52492685,-0.03924405317429028,POINT (-0.0392440531742903 51.52492685)
University of Canterbury,"University of Canterbury, Canterbury, New Zealand",-43.525148,172.573309,POINT (172.573309 -43.525148)
University of Groningen,"University of Groningen, Groningen, Netherlands",53.21944155,6.562986329174857,POINT (6.562986329174857 53.21944155)
University of Birmingham,"University of Birmingham, Birmingham, United Kingdom",52.449818,-1.931466,POINT (-1.931466 52.449818)
Tokyo Institute of Technology,"Tokyo Institute of Technology, Tokyo, Japan",35.60574,139.68339,POINT (139.68339 35.60574)
Cardiff University,"Cardiff University, Cardiff, United Kingdom",51.4894008,-3.180860341001922,POINT (-3.180860341001922 51.4894008)
Loughborough University,"Loughborough University, Leicestershire, United Kingdom",52.7626882,-1.2396365359627026,POINT (-1.2396365359627026 52.7626882)
University of Bremen,"University of Bremen, Bremen, Germany",53.107964550000005,8.855664592828369,POINT (8.855664592828369 53.107964550000005)
Fairfax University of America,"Fairfax University of America, Virginia, United States",38.939102399999996,-76.99996417338346,POINT (-76.99996417338346 38.939102399999996)
Saint Louis University,"Saint Louis University, Missouri, United States",38.64724015,-90.3084017323959,POINT (-90.3084017323959 38.64724015)
The University of Sheffield,"The University of Sheffield, Sheffield, United Kingdom",53.379822149999995,-1.4915342214351466,POINT (-1.4915342214351466 53.379822149999995)
Brandenburg University of Technology,"Brandenburg University of Technology, Brandenburg, Germany",50.020961,7.18244,POINT (7.18244 50.020961)
University of Strathclyde,"University of Strathclyde, Glasgow City, United Kingdom",55.8618812,-4.241956565778082,POINT (-4.241956565778082 55.8618812)
Western Sydney University,"Western Sydney University, New South Wales, Australia",-34.065433,150.793255,POINT (150.793255 -34.065433)
University of Southampton,"University of Southampton, Southampton, United Kingdom",50.9337516,-1.38064865,POINT (-1.38064865 50.9337516)
University of Winnipeg,"University of Winnipeg, Manitoba, Canada",49.891376449999996,-97.15388395504914,POINT (-97.15388395504914 49.891376449999996)
Utrecht University,"Utrecht University, Utrecht, Netherlands",52.0832758,5.1478185,POINT (5.1478185 52.0832758)
Flinders University,"Flinders University, South Australia, Australia",-35.02487525,138.57341808329355,POINT (138.57341808329355 -35.02487525)
Ecole Polytechnique,"Ecole Polytechnique, Palaiseau, France",48.7127874,2.2107453,POINT (2.2107453 48.7127874)
"City, University of London","City, University of London, London, United Kingdom",51.527658200000005,-0.1035244775461434,POINT (-0.1035244775461434 51.527658200000005)
University of Nottingham,"University of Nottingham, Nottingham, United Kingdom",52.9387428,-1.2002956927457427,POINT (-1.2002956927457427 52.9387428)
University of Passau,"University of Passau, Bavaria, Germany",48.567549549999995,13.452108035985926,POINT (13.452108035985926 48.567549549999995)
Heriot-Watt University,"Heriot-Watt University, Edinburgh, United Kingdom",55.91029585,-3.323447514558347,POINT (-3.323447514558347 55.91029585)
Brunel University,"Brunel University, London, United Kingdom",51.5333082,-0.4762302,POINT (-0.4762302 51.5333082)
University of Waikato,"University of Waikato, Waikato, New Zealand",-37.787786,175.3155,POINT (175.3155 -37.787786)
University of Zurich,"University of Zurich, Z'rich, Switzerland",47.37478,8.54858,POINT (8.54858 47.37478)
Kyoto University,"Kyoto University, Kyoto, Japan",35.0229299,135.777149,POINT (135.777149 35.0229299)
Victoria University of Wellington,"Victoria University of Wellington, Wellington, New Zealand",-41.2888731,174.7692657,POINT (174.7692657 -41.2888731)
Vrije Universiteit Amsterdam,"Vrije Universiteit Amsterdam, North Holland, Netherlands",52.3340539,4.865188201518784,POINT (4.865188201518784 52.3340539)
Queen's University Belfast,"Queen's University Belfast, Belfast, United Kingdom",54.5842117,-5.9364324,POINT (-5.9364324 54.5842117)
Leiden University,"Leiden University, South Holland, Netherlands",52.1572025,4.485216803828298,POINT (4.485216803828298 52.1572025)
University of York,"University of York, York, United Kingdom",53.9453903,-1.0314592943104675,POINT (-1.0314592943104675 53.9453903)
"Royal Holloway, University of London","Royal Holloway, University of London, Surrey, United Kingdom",51.424449550000006,-0.5642561069587715,POINT (-0.5642561069587715 51.424449550000006)
Oxford Brookes University,"Oxford Brookes University, Oxfordshire, United Kingdom",51.75004185,-1.1301944200961989,POINT (-1.1301944200961989 51.75004185)
Aston University,"Aston University, Birmingham, United Kingdom",52.48620975,-1.888502354328005,POINT (-1.888502354328005 52.48620975)
Stockholm University,"Stockholm University, Stockholms l'n, Sweden",59.3298746,18.0575007,POINT (18.0575007 59.3298746)
University of Essex,"University of Essex, Essex, United Kingdom",51.877232,0.947607,POINT (0.947607 51.877232)
Cranfield University,"Cranfield University, Bedford, United Kingdom",52.070132900000004,-0.6287023427161589,POINT (-0.6287023427161589 52.070132900000004)
University of Reading,"University of Reading, Reading, United Kingdom",51.4404358,-0.9417618328736392,POINT (-0.9417618328736392 51.4404358)
Teesside University,"Teesside University, Darlington, United Kingdom",54.52916485,-1.5422081341512626,POINT (-1.5422081341512626 54.52916485)
Coventry University,"Coventry University, Coventry, United Kingdom",52.4056372,-1.4997222676795412,POINT (-1.4997222676795412 52.4056372)
University of Aberdeen,"University of Aberdeen, Aberdeen City, United Kingdom",57.16452475,-2.1018363546621197,POINT (-2.1018363546621197 57.16452475)
Maastricht University,"Maastricht University, Limburg, Netherlands",50.83516,5.71476,POINT (5.71476 50.83516)
University of St Andrews,"University of St Andrews, Fife, United Kingdom",56.3398198,-2.8117937053149826,POINT (-2.8117937053149826 56.3398198)
Heinrich Heine University Düsseldorf,"Heinrich Heine University Düsseldorf, North Rhine-Westphilia, Germany",51.22889,6.81,POINT (6.81 51.22889)
University of Düsseldorf (Heinrich-Heine),"University of Düsseldorf (Heinrich-Heine), North Rhine-Westphilia, Germany",52.4938798,13.4467241,POINT (13.4467241 52.4938798)
Birmingham City University,"Birmingham City University, Birmingham, United Kingdom",52.4835078,-1.8837378,POINT (-1.8837378 52.4835078)
Technical University of Denmark,"Technical University of Denmark, Copenhagen, Denmark",55.78555,12.51892,POINT (12.51892 55.78555)
Swansea University,"Swansea University, Wales, United Kingdom",51.625679,-3.940373,POINT (-3.940373 51.625679)
University of East London,"University of East London, London, United Kingdom",51.544326350000006,0.009709714615969586,POINT (0.0097097146159696 51.544326350000006)
University of Hertfordshire,"University of Hertfordshire, Hertfordshire, United Kingdom",51.7754909,-0.09539894359880341,POINT (-0.0953989435988034 51.7754909)
"Seneca College, Newnham","Seneca College, Newnham, Toronto, Canada",43.7584222,-79.5196519,POINT (-79.5196519 43.7584222)
University of Trier,"University of Trier, Rhineland-Palatinate, Germany",49.768058100000005,6.628690122060743,POINT (6.628690122060743 49.768058100000005)
Lambton College,"Lambton College, Sarnia, Canada",42.97666095,-82.34774163972217,POINT (-82.34774163972217 42.97666095)
Radboud University,"Radboud University, Gelderland, Netherlands",51.82151725,5.863403442541042,POINT (5.863403442541042 51.82151725)
University of Kent,"University of Kent, Kent, United Kingdom",51.397863,0.542758,POINT (0.542758 51.397863)
University of Surrey,"University of Surrey, Surrey, United Kingdom",51.236978,-0.607142,POINT (-0.607142 51.236978)
University of Greenwich,"University of Greenwich, London, United Kingdom",51.4825423,-0.0066531,POINT (-0.0066531 51.4825423)
University of Huddersfield,"University of Huddersfield, York, United Kingdom",53.96221,-1.086895,POINT (-1.086895 53.96221)
"EDHEC Business School,Lille","EDHEC Business School,Lille, Paris, France",50.6729687,3.1660828293078698,POINT (3.1660828293078698 50.6729687)
"Conestoga College, Waterloo","Conestoga College, Waterloo, Waterloo, Canada",43.4790039,-80.5172866,POINT (-80.5172866 43.4790039)
Anglia Ruskin University,"Anglia Ruskin University, London, United Kingdom",51.5191263,-0.1058922,POINT (-0.1058922 51.5191263)
University of Hull,"University of Hull, Kingston upon Hull, United Kingdom",53.745501,-0.332182,POINT (-0.332182 53.745501)
"Humber College, North","Humber College, North, Toronto, Canada",43.7285212,-79.60630692591994,POINT (-79.60630692591994 43.7285212)
Loyalist College,"Loyalist College, Belleville, Canada",44.155401850000004,-77.42947432096992,POINT (-77.42947432096992 44.155401850000004)
"Nottingham Trent University, Clifton Campus","Nottingham Trent University, Clifton Campus, Nottingham, United Kingdom",52.91163995,-1.1866048156554174,POINT (-1.1866048156554174 52.91163995)
University of Stirling,"University of Stirling, Stirling, United Kingdom",56.145115399999995,-3.917393804088662,POINT (-3.917393804088662 56.145115399999995)
"Northumbria University, Newcastle","Northumbria University, Newcastle, Newcastle upon Tyne, United Kingdom",54.977505,-1.608298,POINT (-1.608298 54.977505)
ESIEE Paris,"ESIEE Paris, Paris, France",48.839417999999995,2.58364873614239,POINT (2.58364873614239 48.839417999999995)
Yeshiva University,"Yeshiva University, New York, United States",40.85204,-73.92847,POINT (-73.92847 40.85204)
University of Bradford,"University of Bradford, Bradford, United Kingdom",53.7912775,-1.7666110188908903,POINT (-1.7666110188908903 53.7912775)
Aberystwyth University,"Aberystwyth University, Wales, United Kingdom",52.41554955,-4.065054179671381,POINT (-4.065054179671381 52.41554955)
Manchester Metropolitan University,"Manchester Metropolitan University, Manchester, United Kingdom",53.470606,-2.239141,POINT (-2.239141 53.470606)
Umea University,"Umea University, V'sterbottens l'n, Sweden",63.829952649999996,20.26685569577053,POINT (20.26685569577053 63.829952649999996)
Sheffield Hallam University,"Sheffield Hallam University, Sheffield, United Kingdom",53.38172635,-1.462795139475161,POINT (-1.462795139475161 53.38172635)
"George Brown College, Casa Loma Campus","George Brown College, Casa Loma Campus, Toronto, Canada",43.675977450000005,-79.41057616100673,POINT (-79.41057616100673 43.675977450000005)
University of Wolverhampton,"University of Wolverhampton, Wolverhampton, United Kingdom",52.5908309,-2.12755877919463,POINT (-2.12755877919463 52.5908309)
University of South Wales,"University of South Wales, Wales, United Kingdom",51.58526045,-2.98902266134554,POINT (-2.98902266134554 51.58526045)
Università della Svizzera italiana,"Università della Svizzera italiana, Appenzell Ausserrhoden, Switzerland",46.0109126,8.958120471825609,POINT (8.958120471825609 46.0109126)
Technical University of Ingolstadt,"Technical University of Ingolstadt, Bavaria, Germany",52.31925,13.63262,POINT (13.63262 52.31925)
"Durham College, Oshawa","Durham College, Oshawa, Oshawa, Canada",43.940251,-78.894451,POINT (-78.894451 43.940251)
Bournemouth University,"Bournemouth University, Bournemouth, United Kingdom",50.724645,-1.867095321855011,POINT (-1.867095321855011 50.724645)
University of Bologna,"University of Bologna, Bologna, Italy",44.49653,11.35308,POINT (11.35308 44.49653)
"Algonquin College, Ottawa","Algonquin College, Ottawa, Ottawa, Canada",45.346884,-75.758206,POINT (-75.758206 45.346884)
Deggendorf Institute of Technology,"Deggendorf Institute of Technology, Bavaria, Germany",48.829205,12.943491,POINT (12.943491 48.829205)
ESMT Berlin,"ESMT Berlin, Berlin, Germany",52.524932,13.407032,POINT (13.407032 52.524932)
Ulster University,"Ulster University, Coleraine, United Kingdom",55.146263,-6.679351,POINT (-6.679351 55.146263)
Edge Hill University,"Edge Hill University, Lancashire, United Kingdom",53.654312,-2.650206,POINT (-2.650206 53.654312)
Liverpool John Moores University,"Liverpool John Moores University, Liverpool, United Kingdom",53.406277349999996,-2.9743826546534047,POINT (-2.9743826546534047 53.406277349999996)
SRH Hochschule Berlin,"SRH Hochschule Berlin, Berlin, Germany",52.5142138,13.3213531896954,POINT (13.3213531896954 52.5142138)
University of Plymouth,"University of Plymouth, Plymouth, United Kingdom",50.37566725000001,-4.139359304645783,POINT (-4.139359304645783 50.37566725000001)
Falmouth University,"Falmouth University, Cornwall, United Kingdom",50.17159,-5.123143,POINT (-5.123143 50.17159)
University of West London,"University of West London, London, United Kingdom",51.512192,-0.30951,POINT (-0.30951 51.512192)
Maastricht Universities,"Maastricht Universities, Limburg, Netherlands",50.8444528,5.6884711,POINT (5.6884711 50.8444528)
London Metropolitan University,"London Metropolitan University, London, United Kingdom",51.5522821,-0.11126644710491368,POINT (-0.1112664471049137 51.5522821)
Hong Kong Baptist University,"Hong Kong Baptist University, Kowloon, Hong Kong",22.387668,114.209983,POINT (114.209983 22.387668)
University of the West of England,"University of the West of England, Bristol, United Kingdom",51.50076785,-2.5503106339491204,POINT (-2.5503106339491204 51.50076785)
Hochschule Neu-Ulm University of Applied Sciences,"Hochschule Neu-Ulm University of Applied Sciences, Bavaria, Germany",48.380057,10.008854,POINT (10.008854 48.380057)
EU Business School,"EU Business School, Bavaria, Germany",48.1286529,11.5446179,POINT (11.5446179 48.1286529)
Universite Cote d'Azur,"Universite Cote d'Azur, Nice, France",43.716066999999995,7.264897360869565,POINT (7.264897360869565 43.716066999999995)
Hof University of Applied Sciences,"Hof University of Applied Sciences, Bavaria, Germany",50.3252934,11.9405309,POINT (11.9405309 50.3252934)
University of Wales Trinity Saint David,"University of Wales Trinity Saint David, Swansea, United Kingdom",51.6195955,-3.9459248,POINT (-3.9459248 51.6195955)
Universitat Politècnica de Catalunya- BarcelonaTech,"Universitat Politècnica de Catalunya- BarcelonaTech, Barcelona, Spain",41.38869,2.11603,POINT (2.11603 41.38869)
EADA Business School,"EADA Business School, Barcelona, Spain",41.3904669,2.156194,POINT (2.156194 41.3904669)
University of Trento,"University of Trento, Trento, Italy",46.0661497,11.11662318758863,POINT (11.11662318758863 46.0661497)
University of Barcelona,"University of Barcelona, Barcelona, Spain",41.38685955,2.163478411827376,POINT (2.163478411827376 41.38685955)
Johannes Kepler University Linz,"Johannes Kepler University Linz, Upper Austria, Austria",48.33608985,14.320579914064746,POINT (14.320579914064746 48.33608985)
Institut Polytechnique de Paris,"Institut Polytechnique de Paris, Palaiseau, France",48.7139028,2.2141074106393925,POINT (2.2141074106393925 48.7139028)
"Long Island University, Post","Long Island University, Post, New York, United States",40.820245,-73.596775,POINT (-73.596775 40.820245)
"Northeastern University, Portland","Northeastern University, Portland, Maine, United States",43.6573605,-70.2586618,POINT (-70.2586618 43.6573605)
University of Applied Sciences Würzburg - Schweinfurt,"University of Applied Sciences Würzburg - Schweinfurt, Bavaria, Germany",49.7933723,9.9309779,POINT (9.9309779 49.7933723)
Technical University of Nuremberg,"Technical University of Nuremberg, Bavaria, Germany",49.4522688,11.0934692,POINT (11.0934692 49.4522688)
University of Houston - Downtown,"University of Houston - Downtown, Texas, United States",29.58157,-95.098296,POINT (-95.098296 29.58157)
"Fleming College, Sutherland","Fleming College, Sutherland, Peterborough, Canada",44.267728,-78.37433,POINT (-78.37433 44.267728)
IU International University of Applied Sciences,"IU International University of Applied Sciences, Berlin, Germany",52.523463,13.342614,POINT (13.342614 52.523463)
Technical University of Applied Sciences Würzburg-Schweinfurt,"Technical University of Applied Sciences Würzburg-Schweinfurt, Bavaria, Germany",49.798389,10.003851,POINT (10.003851 49.798389)
"Ecole Polytechnique, Montreal","Ecole Polytechnique, Montreal, Quebec, Canada",45.520084,-73.610687,POINT (-73.610687 45.520084)
"Texas A&M University, College Station","Texas A&M University, College Station, Texas, United States",36.1979366,-76.0099227,POINT (-76.0099227 36.1979366)
Georgia Institute of Technology,"Georgia Institute of Technology, Georgia, United States",33.77233,-84.39456,POINT (-84.39456 33.77233)
University of Texas at Austin,"University of Texas at Austin, Texas, United States",30.2851494,-97.73393515146053,POINT (-97.73393515146053 30.2851494)
The University of Texas at Arlington,"The University of Texas at Arlington, Texas, United States",32.728471299999995,-97.11202127009975,POINT (-97.11202127009975 32.728471299999995)
"North Carolina State University, Raleigh","North Carolina State University, Raleigh, North Carolina, United States",35.77184965,-78.67408695452633,POINT (-78.67408695452633 35.77184965)
University of Illinois at Chicago,"University of Illinois at Chicago, Illinois, United States",41.868922299999994,-87.64858476010119,POINT (-87.64858476010119 41.868922299999994)
"University of Maryland, College Park","University of Maryland, College Park, Maryland, United States",38.990412449999994,-76.9438585924238,POINT (-76.9438585924238 38.990412449999994)
"The University of British Columbia, Vancouver","The University of British Columbia, Vancouver, British Columbia, Canada",49.25783145,-123.24624198622213,POINT (-123.24624198622213 49.25783145)
Arizona State University,"Arizona State University, Arizona, United States",33.3366204,-111.8972487,POINT (-111.8972487 33.3366204)
University of North Carolina at Charlotte,"University of North Carolina at Charlotte, North Carolina, United States",35.30649445,-80.73497049689712,POINT (-80.73497049689712 35.30649445)
"University of Michigan, Ann Arbor","University of Michigan, Ann Arbor, Michigan, United States",42.2942142,-83.71003893509601,POINT (-83.71003893509601 42.2942142)
Columbia University,"Columbia University, New York, United States",40.80775585,-73.96164946987652,POINT (-73.96164946987652 40.80775585)
University of Illinois at Urbana-Champaign,"University of Illinois at Urbana-Champaign, Illinois, United States",40.098956,-88.219124,POINT (-88.219124 40.098956)
"University of California, Berkeley","University of California, Berkeley, California, United States",37.87425655,-122.23870915696222,POINT (-122.23870915696222 37.87425655)
Pennsylvania State University,"Pennsylvania State University, Pennsylvania, United States",40.80395,-77.85722,POINT (-77.85722 40.80395)
"University of Minnesota, Twin Cities","University of Minnesota, Twin Cities, Minnesota, United States",38.2910251,-121.31106,POINT (-121.31106 38.2910251)
University of Pennsylvania,"University of Pennsylvania, Pennsylvania, United States",39.948327,-75.186729,POINT (-75.186729 39.948327)
University of Washington,"University of Washington, Washington, United States",47.6571,-122.3077,POINT (-122.3077 47.6571)
Massachusetts Institute of Technology,"Massachusetts Institute of Technology, Massachusetts, United States",42.357767,-71.096983,POINT (-71.096983 42.357767)
Virginia Tech,"Virginia Tech, Virginia, United States",37.226284,-80.425308,POINT (-80.425308 37.226284)
University of Waterloo,"University of Waterloo, Ontario, Canada",43.4701994,-80.54524293779451,POINT (-80.54524293779451 43.4701994)
Syracuse University,"Syracuse University, New York, United States",43.018713,-76.119226,POINT (-76.119226 43.018713)
University of Massachusetts Amherst,"University of Massachusetts Amherst, Massachusetts, United States",42.386969300000004,-72.53018467326824,POINT (-72.53018467326824 42.386969300000004)
Stanford University,"Stanford University, California, United States",37.431313849999995,-122.16936535498309,POINT (-122.16936535498309 37.431313849999995)
Cornell University,"Cornell University, New York, United States",40.76484285,-73.95476247405148,POINT (-73.95476247405148 40.76484285)
University of Houston,"University of Houston, Texas, United States",29.7207902,-95.34406271491369,POINT (-95.34406271491369 29.7207902)
University of South Florida,"University of South Florida, Florida, United States",28.5421109,-81.3790304,POINT (-81.3790304 28.5421109)
University of Wisconsin-Madison,"University of Wisconsin-Madison, Wisconsin, United States",45.12941,-90.3357,POINT (-90.3357 45.12941)
McGill University,"McGill University, Montreal, Canada",45.50688675,-73.57908551043636,POINT (-73.57908551043636 45.50688675)
Ohio State University,"Ohio State University, Ohio, United States",39.99618,-83.01879,POINT (-83.01879 39.99618)
Indiana University Bloomington,"Indiana University Bloomington, Indiana, United States",39.1802358,-86.50935262731483,POINT (-86.50935262731483 39.1802358)
Clemson University,"Clemson University, South Carolina, United States",37.3292167,-86.3646994,POINT (-86.3646994 37.3292167)
University of Arizona,"University of Arizona, Arizona, United States",32.232101,-110.952363,POINT (-110.952363 32.232101)
Harvard University,"Harvard University, Massachusetts, United States",42.365743249999994,-71.12221394207614,POINT (-71.12221394207614 42.365743249999994)
Technical University of Munich,"Technical University of Munich, Bavaria, Germany",48.2655696,11.669345610437997,POINT (11.669345610437997 48.2655696)
The University of Utah,"The University of Utah, Utah, United States",40.2728167,-111.69880112571488,POINT (-111.69880112571488 40.2728167)
Texas Tech University,"Texas Tech University, Texas, United States",33.584461,-101.87149,POINT (-101.87149 33.584461)
Carleton University,"Carleton University, Ottawa, Canada",45.3858581,-75.69500411688679,POINT (-75.69500411688679 45.3858581)
University of Calgary,"University of Calgary, Alberta, Canada",51.07505395,-114.13876168856827,POINT (-114.13876168856827 51.07505395)
Dalhousie University,"Dalhousie University, Nova Scotia, Canada",44.634778,-63.590802,POINT (-63.590802 44.634778)
University of Virginia,"University of Virginia, Virginia, United States",38.037659,-78.526541,POINT (-78.526541 38.037659)
Princeton University,"Princeton University, New Jersey, United States",40.340129,-74.657404,POINT (-74.657404 40.340129)
Yale University,"Yale University, Connecticut, United States",39.6686335,-104.9270833,POINT (-104.9270833 39.6686335)
RWTH Aachen University,"RWTH Aachen University, North Rhine-Westphilia, Germany",50.7791657,6.068920935592383,POINT (6.068920935592383 50.7791657)
University of Colorado at Denver,"University of Colorado at Denver, Colorado, United States",39.674067,-104.977776,POINT (-104.977776 39.674067)
"New York Institute of Technology, NY Campus","New York Institute of Technology, NY Campus, New York, United States",40.77636,-73.963662,POINT (-73.963662 40.77636)
Rice University,"Rice University, Texas, United States",29.716087,-95.40941,POINT (-95.40941 29.716087)
Delft University of Technology,"Delft University of Technology, South Holland, Netherlands",51.99882735,4.373960368154041,POINT (4.373960368154041 51.99882735)
The University of Melbourne,"The University of Melbourne, Victoria, Australia",-37.824680150000006,144.96878302072327,POINT (144.96878302072327 -37.824680150000006)
Kansas State University,"Kansas State University, Kansas, United States",38.514612,-94.93939,POINT (-94.93939 38.514612)
National University Of Singapore,"National University Of Singapore, Singapore, Singapore",1.2962018,103.77689765953073,POINT (103.77689765953073 1.2962018)
Technical University of Berlin,"Technical University of Berlin, Berlin, Germany",52.4938798,13.4467241,POINT (13.4467241 52.4938798)
Washington State University,"Washington State University, Washington, United States",46.7337716,-117.14980348311619,POINT (-117.14980348311619 46.7337716)
Florida International University,"Florida International University, Florida, United States",25.7553898,-80.3762832779774,POINT (-80.3762832779774 25.7553898)
University of Oklahoma,"University of Oklahoma, Oklahoma, United States",35.1959878,-97.44570827599858,POINT (-97.44570827599858 35.1959878)
Dartmouth College,"Dartmouth College, New Hampshire, United States",43.644386,-71.586283,POINT (-71.586283 43.644386)
Rensselaer Polytechnic Institute,"Rensselaer Polytechnic Institute, New York, United States",42.7298969,-73.67966781998861,POINT (-73.67966781998861 42.7298969)
Portland State University,"Portland State University, Oregon, United States",45.5162288,-122.6836169,POINT (-122.6836169 45.5162288)
Washington University in St. Louis,"Washington University in St. Louis, Missouri, United States",38.64724015,-90.3084017323959,POINT (-90.3084017323959 38.64724015)
"University of Missouri, Columbia","University of Missouri, Columbia, Missouri, United States",38.93641465,-92.32970301784542,POINT (-92.32970301784542 38.93641465)
The University of New South Wales,"The University of New South Wales, New South Wales, Australia",-33.88888125,151.18941425705117,POINT (151.18941425705117 -33.88888125)
University of Montreal,"University of Montreal, Quebec, Canada",45.5056348,-73.574852,POINT (-73.574852 45.5056348)
University of Wisconsin-Milwaukee,"University of Wisconsin-Milwaukee, Wisconsin, United States",43.05859025,-87.88611538501667,POINT (-87.88611538501667 43.05859025)
The University of Kansas,"The University of Kansas, Kansas, United States",39.0559267,-94.60903320003007,POINT (-94.60903320003007 39.0559267)
University of Manitoba,"University of Manitoba, Manitoba, Canada",49.815622,-97.118363,POINT (-97.118363 49.815622)
ETH Zurich,"ETH Zurich, Z'rich, Switzerland",47.40784,8.507826,POINT (8.507826 47.40784)
University of Cambridge,"University of Cambridge, Cambridgeshire, United Kingdom",52.202375,0.121627,POINT (0.121627 52.202375)
University of Stuttgart,"University of Stuttgart, Baden-Warttemberg, Germany",-24.734259,-47.557833,POINT (-47.557833 -24.734259)
University of Tennessee at Knoxville,"University of Tennessee at Knoxville, Tennessee, United States",35.950619,-83.933526,POINT (-83.933526 35.950619)
"Deakin University, Melbourne","Deakin University, Melbourne, Victoria, Australia",-37.847513649999996,145.11494735286496,POINT (145.11494735286496 -37.847513649999996)
Temple University,"Temple University, Pennsylvania, United States",40.164553,-75.192397,POINT (-75.192397 40.164553)
"Southern Illinois University, Carbondale","Southern Illinois University, Carbondale, Illinois, United States",37.7083423,-89.22755559722675,POINT (-89.22755559722675 37.7083423)
The University of Sydney,"The University of Sydney, New South Wales, Australia",-33.88888125,151.18941425705117,POINT (151.18941425705117 -33.88888125)
Louisiana State University,"Louisiana State University, Louisiana, United States",30.41118,-91.17949,POINT (-91.17949 30.41118)
KTH Royal Institute of Technology,"KTH Royal Institute of Technology, Stockholms l'n, Sweden",59.201676,17.62032,POINT (17.62032 59.201676)
Karlsruhe Institute of Technology,"Karlsruhe Institute of Technology, Baden-Warttemberg, Germany",40.955046,-5.650342,POINT (-5.650342 40.955046)
University of Notre Dame,"University of Notre Dame, Indiana, United States",41.704567749999995,-86.23822026017265,POINT (-86.23822026017265 41.704567749999995)
University of Edinburgh,"University of Edinburgh, Edinburgh, United Kingdom",55.94407645,-3.1883735563964555,POINT (-3.1883735563964555 55.94407645)
"University of Nebraska, Lincoln","University of Nebraska, Lincoln, Nebraska, United States",40.8199029,-96.7018502,POINT (-96.7018502 40.8199029)
University College London,"University College London, London, United Kingdom",51.52420305,-0.13300072425929543,POINT (-0.1330007242592954 51.52420305)
The University of Queensland,"The University of Queensland, Queensland, Australia",-27.49741805,153.01316955983583,POINT (153.01316955983583 -27.49741805)
North Dakota State University,"North Dakota State University, North Dakota, United States",46.897155,-96.81826543221285,POINT (-96.81826543221285 46.897155)
California Polytechnic State University,"California Polytechnic State University, California, United States",37.0262692,-121.85199093711628,POINT (-121.85199093711628 37.0262692)
"California State Polytechnic University, Pomona","California State Polytechnic University, Pomona, California, United States",34.04829465,-117.81510133547494,POINT (-117.81510133547494 34.04829465)
University of New Mexico,"University of New Mexico, New Mexico, United States",35.08663275,-106.62020940505188,POINT (-106.62020940505188 35.08663275)
"The City College of New York, CCNY","The City College of New York, CCNY, New York, United States",40.81819805,-73.95100897933364,POINT (-73.95100897933364 40.81819805)
University of Memphis,"University of Memphis, Tennessee, United States",35.1189387,-89.93721959965887,POINT (-89.93721959965887 35.1189387)
Bowling Green State University,"Bowling Green State University, Ohio, United States",41.3992178,-82.595655667719,POINT (-82.595655667719 41.3992178)
University of Oregon,"University of Oregon, Oregon, United States",44.04434225,-123.07762592699092,POINT (-123.07762592699092 44.04434225)
Ecole Polytechnique Fédérale de Lausanne,"Ecole Polytechnique Fédérale de Lausanne, Vaud, Switzerland",46.518659400000004,6.566561505148001,POINT (6.566561505148001 46.518659400000004)
University of Leeds,"University of Leeds, Leeds, United Kingdom",53.80677435,-1.5562877504739676,POINT (-1.5562877504739676 53.80677435)
The University of Auckland,"The University of Auckland, Auckland, New Zealand",-36.939795,174.884873,POINT (174.884873 -36.939795)
University of Miami,"University of Miami, Florida, United States",25.73788,-80.27894,POINT (-80.27894 25.73788)
Queensland University of Technology,"Queensland University of Technology, Queensland, Australia",-27.685222,152.90725,POINT (152.90725 -27.685222)
South Dakota State University,"South Dakota State University, South Dakota, United States",44.347967,-96.798171,POINT (-96.798171 44.347967)
"University of Nevada, Las Vegas","University of Nevada, Las Vegas, Nevada, United States",36.10782625,-115.14186111825259,POINT (-115.14186111825259 36.10782625)
Swinburne University of Technology,"Swinburne University of Technology, Victoria, Australia",-37.820558500000004,145.03857627268115,POINT (145.03857627268115 -37.820558500000004)
University of Idaho,"University of Idaho, Idaho, United States",46.72379775,-117.02043898436474,POINT (-117.02043898436474 46.72379775)
Kennesaw State University,"Kennesaw State University, Georgia, United States",34.03823,-84.58408,POINT (-84.58408 34.03823)
Auckland University of Technology,"Auckland University of Technology, Auckland, New Zealand",-36.8529871,174.76641995267917,POINT (174.76641995267917 -36.8529871)
Montana State University at Bozeman,"Montana State University at Bozeman, Montana, United States",45.664732,-111.066898,POINT (-111.066898 45.664732)
The University of Tokyo,"The University of Tokyo, Tokyo, Japan",35.71339,139.76232,POINT (139.76232 35.71339)
The University of Western Australia,"The University of Western Australia, Western Australia, Australia",-31.98052,115.81942,POINT (115.81942 -31.98052)
University of Louisiana at Lafayette,"University of Louisiana at Lafayette, Louisiana, United States",30.21928995,-92.04138304137905,POINT (-92.04138304137905 30.21928995)
Miami University,"Miami University, Ohio, United States",39.5094198,-84.7311545671451,POINT (-84.7311545671451 39.5094198)
Bauhaus-Universität Weimar,"Bauhaus-Universität Weimar, Thuringia, Germany",50.9751646,11.3294633,POINT (11.3294633 50.9751646)
Griffith University,"Griffith University, Queensland, Australia",-27.54662495,153.06429222548272,POINT (153.06429222548272 -27.54662495)
Lancaster University,"Lancaster University, Lancashire, United Kingdom",54.01065,-2.784967,POINT (-2.784967 54.01065)
University of South Australia,"University of South Australia, South Australia, Australia",-34.8088,138.62028,POINT (138.62028 -34.8088)
California Baptist University,"California Baptist University, California, United States",33.928323899999995,-117.42592062058485,POINT (-117.42592062058485 33.928323899999995)
University of Tasmania,"University of Tasmania, Tasmania, Australia",-31.95321805,152.55553581840277,POINT (152.55553581840277 -31.95321805)
Lund University,"Lund University, Sk'ne l'n, Sweden",59.3233062,18.095834428332502,POINT (18.095834428332502 59.3233062)
Ball State University,"Ball State University, Indiana, United States",40.223857,-85.424668,POINT (-85.424668 40.223857)
University of Liverpool,"University of Liverpool, Liverpool, United Kingdom",53.40724285,-2.965833661018871,POINT (-2.965833661018871 53.40724285)
Newcastle University,"Newcastle University, Newcastle upon Tyne, United Kingdom",54.98017505,-1.6146802127187847,POINT (-1.6146802127187847 54.98017505)
"Northeastern University, Seattle","Northeastern University, Seattle, Washington, United States",47.6230201,-122.3373546,POINT (-122.3373546 47.6230201)
Kingston University London,"Kingston University London, Kingston upon Thames, United Kingdom",51.403073899999995,-0.3032181426130893,POINT (-0.3032181426130893 51.403073899999995)
Florida Agricultural and Mechanical University,"Florida Agricultural and Mechanical University, Florida, United States",40.005118,-83.027188,POINT (-83.027188 40.005118)
Claremont Graduate University,"Claremont Graduate University, California, United States",37.870173,-122.220592,POINT (-122.220592 37.870173)
University of Newcastle,"University of Newcastle, New South Wales, Australia",-32.8818,151.6846,POINT (151.6846 -32.8818)
University of Kassel,"University of Kassel, Hesse, Germany",51.303706250000005,9.414465124062877,POINT (9.414465124062877 51.303706250000005)
Tulane University,"Tulane University, New York, United States",40.750378,-73.822503,POINT (-73.822503 40.750378)
Laurentian University,"Laurentian University, Sudbury, Canada",46.4666416,-80.9738711,POINT (-80.9738711 46.4666416)
University of Bristol,"University of Bristol, Bristol, United Kingdom",51.458006,-2.603117,POINT (-2.603117 51.458006)
University of Detroit Mercy,"University of Detroit Mercy, Michigan, United States",42.33828245,-83.08727389654823,POINT (-83.08727389654823 42.33828245)
University of Wuppertal,"University of Wuppertal, North Rhine-Westphilia, Germany",52.4938798,13.4467241,POINT (13.4467241 52.4938798)
Prairie View A&M University,"Prairie View A&M University, Texas, United States",35.3357997,-93.5242891,POINT (-93.5242891 35.3357997)
University of Canberra,"University of Canberra, Australian Capital Territory, Australia",-33.735146,151.004134,POINT (151.004134 -33.735146)
Kyushu University,"Kyushu University, Fukuoka, Japan",33.608295299999995,130.41698498845255,POINT (130.41698498845255 33.608295299999995)
Bond University,"Bond University, Queensland, Australia",-27.54662495,153.06429222548272,POINT (153.06429222548272 -27.54662495)
University of Hartford,"University of Hartford, Connecticut, United States",41.8002648,-72.71412054842195,POINT (-72.71412054842195 41.8002648)
Catholic University Of America,"Catholic University Of America, District of Columbia, United States",38.937293,-77.001309,POINT (-77.001309 38.937293)
University of the District of Columbia,"University of the District of Columbia, Washington, United States",40.032089,-76.5016402,POINT (-76.5016402 40.032089)
"Nottingham Trent University, City Campus","Nottingham Trent University, City Campus, Nottingham, United Kingdom",52.957732199999995,-1.1561587845079129,POINT (-1.1561587845079129 52.957732199999995)
Hampton University,"Hampton University, Virginia, United States",37.0210096,-76.33862554102596,POINT (-76.33862554102596 37.0210096)
University of Portsmouth,"University of Portsmouth, Portsmouth, United Kingdom",50.796333,-1.040133,POINT (-1.040133 50.796333)
Morgan State University,"Morgan State University, Maryland, United States",39.342929,-76.58359,POINT (-76.58359 39.342929)
University of Westminster,"University of Westminster, London, United Kingdom",51.5776153,-0.326252,POINT (-0.326252 51.5776153)
University of Dundee,"University of Dundee, Dundee City, United Kingdom",56.45796755,-2.9821483135375493,POINT (-2.9821483135375493 56.45796755)
"Conestoga College, Kitchener–Doon","Conestoga College, Kitchener–Doon, Kitchener, Canada",43.392147,-80.404125,POINT (-80.404125 43.392147)
Lincoln University,"Lincoln University, Canterbury, New Zealand",-43.643494,172.467894,POINT (172.467894 -43.643494)
Tokyo University of Science,"Tokyo University of Science, Tokyo, Japan",35.71339,139.76232,POINT (139.76232 35.71339)
Savannah College of Art and Design,"Savannah College of Art and Design, Georgia, United States",32.143122,-81.04755066294668,POINT (-81.04755066294668 32.143122)
University of Notre Dame Australia,"University of Notre Dame Australia, Western Australia, Australia",-32.054062,115.743943,POINT (115.743943 -32.054062)
London South Bank University,"London South Bank University, London, United Kingdom",51.497703200000004,-0.10180888945112561,POINT (-0.1018088894511256 51.497703200000004)
Rhode Island School of Design,"Rhode Island School of Design, Rhode Island, United States",41.8262294,-71.4081213,POINT (-71.4081213 41.8262294)
The New School,"The New School, New York, United States",40.73547915,-73.9970708835668,POINT (-73.9970708835668 40.73547915)
Kobe University,"Kobe University, Hyogo, Japan",34.72758,135.23705326057097,POINT (135.23705326057097 34.72758)
Wentworth Institute of Technology,"Wentworth Institute of Technology, Massachusetts, United States",42.357767,-71.096983,POINT (-71.096983 42.357767)
University of the Fraser Valley,"University of the Fraser Valley, British Columbia, Canada",49.157031,-121.961679,POINT (-121.961679 49.157031)
School of the Art Institute of Chicago,"School of the Art Institute of Chicago, Illinois, United States",41.8789896,-87.62149960084983,POINT (-87.62149960084983 41.8789896)
Leeds Beckett University,"Leeds Beckett University, Leeds, United Kingdom",53.826144150000005,-1.5933537200236456,POINT (-1.5933537200236456 53.826144150000005)
Thomas Jefferson University,"Thomas Jefferson University, Pennsylvania, United States",40.091259,-75.163689,POINT (-75.163689 40.091259)
University of Central Lancashire,"University of Central Lancashire, Lancashire, United Kingdom",51.536749,-0.12457,POINT (-0.12457 51.536749)
University of Salford,"University of Salford, Salford, United Kingdom",53.4886422,-2.2783094237220456,POINT (-2.2783094237220456 53.4886422)
Yamaguchi University,"Yamaguchi University, Yamaguchi, Japan",34.1480761,131.4686776285103,POINT (131.4686776285103 34.1480761)
De Montfort University,"De Montfort University, Leicester, United Kingdom",52.630060900000004,-1.1398434074941486,POINT (-1.1398434074941486 52.630060900000004)
Pratt Institute,"Pratt Institute, New York, United States",40.69133825,-73.96301632978006,POINT (-73.96301632978006 40.69133825)
The University of Hong Kong,"The University of Hong Kong, Pok Fu Lam, Hong Kong",22.283269,114.136744,POINT (114.136744 22.283269)
Robert Gordon University,"Robert Gordon University, Aberdeen City, United Kingdom",57.1187364,-2.139306576766816,POINT (-2.139306576766816 57.1187364)
Solent University,"Solent University, Hampshire, United Kingdom",50.908184,-1.401085,POINT (-1.401085 50.908184)
Frankfurt University of Applied Sciences,"Frankfurt University of Applied Sciences, Frankfurt, Germany",50.130533549999996,8.692333113901654,POINT (8.692333113901654 50.130533549999996)
SRH University Heidelberg,"SRH University Heidelberg, Heidelberg, Germany",49.4093582,8.694724,POINT (8.694724 49.4093582)
Sault College,"Sault College, Sault, Canada",46.5325439,-84.31150354548515,POINT (-84.31150354548515 46.5325439)
University of Brighton,"University of Brighton, Brighton and Hove, United Kingdom",50.85931,-0.086693,POINT (-0.086693 50.85931)
City University of Hong Kong,"City University of Hong Kong, Kowloon, Hong Kong",22.33653,114.174398,POINT (114.174398 22.33653)
Sapienza University of Rome,"Sapienza University of Rome, Roma, Italy",41.90386,12.51489,POINT (12.51489 41.90386)
Norwich University,"Norwich University, Vermont, United States",44.137085,-72.660743,POINT (-72.660743 44.137085)
"Goldsmiths, University of London","Goldsmiths, University of London, London, United Kingdom",51.4736302,-0.037246446695101076,POINT (-0.0372464466951011 51.4736302)
The Chinese University of Hong Kong,"The Chinese University of Hong Kong, New Territories, Hong Kong",22.418531,114.214437,POINT (114.214437 22.418531)
Southern California Institute Of Architecture,"Southern California Institute Of Architecture, California, United States",34.043179,-118.232807,POINT (-118.232807 34.043179)
University of Lincoln,"University of Lincoln, Lincolnshire, United Kingdom",53.2297151,-0.550105,POINT (-0.550105 53.2297151)
California College of Arts,"California College of Arts, California, United States",37.8361421,-122.25044572879162,POINT (-122.25044572879162 37.8361421)
University for the Creative Arts,"University for the Creative Arts, Kent, United Kingdom",51.2162625,-0.8060567021382656,POINT (-0.8060567021382656 51.2162625)
Polytechnic University of Turin,"Polytechnic University of Turin, Turin, Italy",45.0677551,7.6824892,POINT (7.6824892 45.0677551)
Royal College of Art,"Royal College of Art, London, United Kingdom",51.4792809,-0.17045508721674918,POINT (-0.1704550872167492 51.4792809)
Politecnico di Milano,"Politecnico di Milano, Milan, Italy",45.4782,9.22843,POINT (9.22843 45.4782)
Politecnico di Torino,"Politecnico di Torino, Turin, Italy",45.063697399999995,7.657526334442466,POINT (7.657526334442466 45.063697399999995)
Royal Danish Academy,"Royal Danish Academy, Hovedstaden, Denmark",55.6731787,12.5737989,POINT (12.5737989 55.6731787)
Boston Architectural College,"Boston Architectural College, Massachusetts, United States",42.3484348,-71.08592515016778,POINT (-71.08592515016778 42.3484348)
Norwich University Of The Arts,"Norwich University Of The Arts, Norfolk, United Kingdom",52.6308773,1.29499856903557,POINT (1.29499856903557 52.6308773)
HafenCity University Hamburg,"HafenCity University Hamburg, Hamburg, Germany",53.54028945,10.00488951198924,POINT (10.00488951198924 53.54028945)
"University of Illinois Chicago, Global","University of Illinois Chicago, Global, Illinois, United States",41.867535,-87.652416,POINT (-87.652416 41.867535)
Woodbury University,"Woodbury University, California, United States",34.2078523,-118.34097000260238,POINT (-118.34097000260238 34.2078523)
NewSchool of Architecture & Design,"NewSchool of Architecture & Design, California, United States",32.7133688,-117.1533911,POINT (-117.1533911 32.7133688)
Arts University Bournemouth,"Arts University Bournemouth, Poole, United Kingdom",50.74127085,-1.8980130014173806,POINT (-1.8980130014173806 50.74127085)
New York University,"New York University, New York, United States",40.7306773,-73.9994085,POINT (-73.9994085 40.7306773)
Purdue University West Lafayette,"Purdue University West Lafayette, Indiana, United States",40.430028,-86.92642114650494,POINT (-86.92642114650494 40.430028)
University of Colorado Boulder,"University of Colorado Boulder, Colorado, United States",40.00759835,-105.26910078017822,POINT (-105.26910078017822 40.00759835)
Michigan State University,"Michigan State University, Michigan, United States",42.70237935,-84.48038686520441,POINT (-84.48038686520441 42.70237935)
San Diego State University,"San Diego State University, California, United States",32.7761529,-117.07330366921886,POINT (-117.07330366921886 32.7761529)
"California State University, Fullerton","California State University, Fullerton, California, United States",33.8830939,-117.88521521398181,POINT (-117.88521521398181 33.8830939)
"California State University, Long Beach","California State University, Long Beach, California, United States",33.78177085,-118.11520014816904,POINT (-118.11520014816904 33.78177085)
George Mason University,"George Mason University, Virginia, United States",38.83133325,-77.30798838879116,POINT (-77.30798838879116 38.83133325)
University of Windsor,"University of Windsor, Ontario, Canada",42.301077,-83.05041,POINT (-83.05041 42.301077)
Concordia University,"Concordia University, Montreal, Canada",45.4952479,-73.57858216019235,POINT (-73.57858216019235 45.4952479)
California Institute Of Technology,"California Institute Of Technology, California, United States",37.797521,-122.433611,POINT (-122.433611 37.797521)
Santa Clara University,"Santa Clara University, California, United States",37.3531034,-121.936229,POINT (-121.936229 37.3531034)
Colorado State University,"Colorado State University, Colorado, United States",40.569628,-105.085746,POINT (-105.085746 40.569628)
"California State University, Los Angeles","California State University, Los Angeles, California, United States",34.066494899999995,-118.16714151663223,POINT (-118.16714151663223 34.066494899999995)
Michigan Technological University,"Michigan Technological University, Michigan, United States",47.1099114,-88.55115132129092,POINT (-88.55115132129092 47.1099114)
Johns Hopkins University,"Johns Hopkins University, Maryland, United States",39.24177,-76.93636,POINT (-76.93636 39.24177)
Texas A&M University - Kingsville,"Texas A&M University - Kingsville, Texas, United States",36.1979366,-76.0099227,POINT (-76.0099227 36.1979366)
University of Ottawa,"University of Ottawa, Ottawa, Canada",45.42252705,-75.68339041611182,POINT (-75.68339041611182 45.42252705)
University of North Carolina at Chapel Hill,"University of North Carolina at Chapel Hill, North Carolina, United States",35.90503535,-79.04775326525107,POINT (-79.04775326525107 35.90503535)
University of Dayton,"University of Dayton, Ohio, United States",39.7385352,-84.17304167397326,POINT (-84.17304167397326 39.7385352)
Cleveland State University,"Cleveland State University, Ohio, United States",41.50258335,-81.67508708526213,POINT (-81.67508708526213 41.50258335)
Queen's University,"Queen's University, Kingston, Canada",44.22634885,-76.49575545601735,POINT (-76.49575545601735 44.22634885)
"California State University, Sacramento","California State University, Sacramento, California, United States",38.5599044,-121.42408187463846,POINT (-121.42408187463846 38.5599044)
University of Pittsburgh,"University of Pittsburgh, Pennsylvania, United States",40.44415295,-79.96246095144505,POINT (-79.96246095144505 40.44415295)
Oklahoma State University - Stillwater,"Oklahoma State University - Stillwater, Oklahoma, United States",36.128476750000004,-97.08398055028107,POINT (-97.08398055028107 36.128476750000004)
McMaster University,"McMaster University, Hamilton, Canada",43.263939699999995,-79.917825231868,POINT (-79.917825231868 43.263939699999995)
Auburn University,"Auburn University, Alabama, United States",32.6299692,-85.5122373,POINT (-85.5122373 32.6299692)
University of Central Florida,"University of Central Florida, Florida, United States",28.5421109,-81.3790304,POINT (-81.3790304 28.5421109)
Florida State University,"Florida State University, Florida, United States",30.4419,-84.29085,POINT (-84.29085 30.4419)
University of New Haven,"University of New Haven, Connecticut, United States",41.29091365,-72.96263883692575,POINT (-72.96263883692575 41.29091365)
University of Connecticut,"University of Connecticut, Connecticut, United States",41.819012,-72.235763,POINT (-72.235763 41.819012)
Missouri University of Science and Technology,"Missouri University of Science and Technology, Missouri, United States",38.775327,-90.784488,POINT (-90.784488 38.775327)
"California State University, Fresno","California State University, Fresno, California, United States",36.820996300000004,-119.73729762569181,POINT (-119.73729762569181 36.820996300000004)
University of Victoria,"University of Victoria, British Columbia, Canada",48.46205995,-123.31141980604804,POINT (-123.31141980604804 48.46205995)
Drexel University,"Drexel University, Pennsylvania, United States",39.9569305,-75.18992654517834,POINT (-75.18992654517834 39.9569305)
"University of Missouri, Kansas City","University of Missouri, Kansas City, Missouri, United States",39.03924035,-94.57248659618713,POINT (-94.57248659618713 39.03924035)
Lakehead University,"Lakehead University, Thunder Bay, Canada",48.41829185,-89.261716,POINT (-89.261716 48.41829185)
University of Massachusetts Lowell,"University of Massachusetts Lowell, Massachusetts, United States",42.651909700000004,-71.31736283953776,POINT (-71.31736283953776 42.651909700000004)
West Virginia University,"West Virginia University, West Virginia, United States",37.584251,-81.538219,POINT (-81.538219 37.584251)
Southern Methodist University,"Southern Methodist University, Texas, United States",32.841801149999995,-96.78152810147064,POINT (-96.78152810147064 32.841801149999995)
Lehigh University,"Lehigh University, Pennsylvania, United States",40.507616,-75.78204,POINT (-75.78204 40.507616)
University of Alabama at Birmingham,"University of Alabama at Birmingham, Alabama, United States",33.506734,-86.803268,POINT (-86.803268 33.506734)
University of South Carolina,"University of South Carolina, South Carolina, United States",33.996853,-81.027671,POINT (-81.027671 33.996853)
"University of Alabama, Huntsville","University of Alabama, Huntsville, Alabama, United States",34.7249108,-86.6404909520731,POINT (-86.6404909520731 34.7249108)
Florida Institute of Technology,"Florida Institute of Technology, Florida, United States",28.064270999999998,-80.6230040282868,POINT (-80.6230040282868 28.064270999999998)
University of Saskatchewan,"University of Saskatchewan, Saskatchewan, Canada",52.13441935,-106.6277768327002,POINT (-106.6277768327002 52.13441935)
Western Michigan University,"Western Michigan University, Michigan, United States",42.283939,-85.613247,POINT (-85.613247 42.283939)
University of Delaware,"University of Delaware, Delaware, United States",39.6616,-75.7488,POINT (-75.7488 39.6616)
Lamar University,"Lamar University, Texas, United States",30.03889465,-94.07589293260585,POINT (-94.07589293260585 30.03889465)
University of New Brunswick,"University of New Brunswick, New Brunswick, Canada",45.945530250000004,-66.64018313486694,POINT (-66.64018313486694 45.945530250000004)
Mississippi State University,"Mississippi State University, Mississippi, United States",33.4386876,-88.79432320417112,POINT (-88.79432320417112 33.4386876)
Utah State University,"Utah State University, Utah, United States",41.765488,-111.816238,POINT (-111.816238 41.765488)
Bradley University,"Bradley University, Illinois, United States",40.6986316,-89.6119125,POINT (-89.6119125 40.6986316)
Technical University of Hamburg,"Technical University of Hamburg, Hamburg, Germany",51.752276,10.872336,POINT (10.872336 51.752276)
Northern Arizona University,"Northern Arizona University, Arizona, United States",35.1834428,-111.65500037883243,POINT (-111.65500037883243 35.1834428)
"Southern Illinois University, Edwardsville","Southern Illinois University, Edwardsville, Illinois, United States",38.794161599999995,-90.00027885501575,POINT (-90.00027885501575 38.794161599999995)
Penn State Harrisburg,"Penn State Harrisburg, Pennsylvania, United States",40.28766,-76.89848,POINT (-76.89848 40.28766)
University of Glasgow,"University of Glasgow, Glasgow City, United Kingdom",55.872315349999994,-4.289219112981823,POINT (-4.289219112981823 55.872315349999994)
Ohio University,"Ohio University, Ohio, United States",40.00164575,-83.01973744224524,POINT (-83.01973744224524 40.00164575)
Vanderbilt University,"Vanderbilt University, Tennessee, United States",36.14380105,-86.80281889095295,POINT (-86.80281889095295 36.14380105)
Penn State Great Valley,"Penn State Great Valley, Pennsylvania, United States",40.8025835,-77.85593833184565,POINT (-77.85593833184565 40.8025835)
University of Texas at Tyler,"University of Texas at Tyler, Texas, United States",32.316307800000004,-95.25369943794593,POINT (-95.25369943794593 32.316307800000004)
University of Arkansas,"University of Arkansas, Arkansas, United States",36.09352375,-94.17708979491738,POINT (-94.17708979491738 36.09352375)
The University of Alabama,"The University of Alabama, Alabama, United States",30.697247,-88.182276,POINT (-88.182276 30.697247)
North Carolina Agricultural and Technical State University,"North Carolina Agricultural and Technical State University, North Carolina, United States",36.0781271,-79.77054699357666,POINT (-79.77054699357666 36.0781271)
Curtin University,"Curtin University, Western Australia, Australia",-32.0057281,115.8929073394684,POINT (115.8929073394684 -32.0057281)
Old Dominion University,"Old Dominion University, Virginia, United States",38.033035,-78.504878,POINT (-78.504878 38.033035)
University of Kentucky,"University of Kentucky, Kentucky, United States",37.478897,-82.5209472,POINT (-82.5209472 37.478897)
University of Akron,"University of Akron, Ohio, United States",41.07573825,-81.51145320375983,POINT (-81.51145320375983 41.07573825)
The University of Toledo,"The University of Toledo, Ohio, United States",41.6582432,-83.61478734161769,POINT (-83.61478734161769 41.6582432)
University of Wollongong,"University of Wollongong, New South Wales, Australia",-34.40505545,150.87834654727789,POINT (150.87834654727789 -34.40505545)
Villanova University,"Villanova University, Pennsylvania, United States",40.0367774,-75.34202332002798,POINT (-75.34202332002798 40.0367774)
University of Mississippi,"University of Mississippi, Mississippi, United States",45.5514941,-122.6755826,POINT (-122.6755826 45.5514941)
Brigham Young University,"Brigham Young University, Utah, United States",40.753008,-111.820293,POINT (-111.820293 40.753008)
University of Bath,"University of Bath, Bath and North East Somerset, United Kingdom",51.378751050000005,-2.334089807238425,POINT (-2.334089807238425 51.378751050000005)
University of Louisville,"University of Louisville, Kentucky, United States",38.2484579,-85.7429012,POINT (-85.7429012 38.2484579)
New Mexico State University,"New Mexico State University, New Mexico, United States",34.498624,-106.108278,POINT (-106.108278 34.498624)
The University of Texas at El Paso,"The University of Texas at El Paso, Texas, United States",31.77570475,-106.50628747547725,POINT (-106.50628747547725 31.77570475)
Royal Military College of Canada,"Royal Military College of Canada, Kingston, Canada",44.23173535,-76.46810931379696,POINT (-76.46810931379696 44.23173535)
University of Twente,"University of Twente, Overijssel, Netherlands",51.924557,4.473228,POINT (4.473228 51.924557)
Louisiana Tech University,"Louisiana Tech University, Louisiana, United States",32.5263599,-92.6478015444252,POINT (-92.6478015444252 32.5263599)
University of Minnesota Duluth,"University of Minnesota Duluth, Minnesota, United States",46.8203898,-92.08527412081386,POINT (-92.08527412081386 46.8203898)
Ruhr University Bochum,"Ruhr University Bochum, North Rhine-Westphilia, Germany",51.444157649999994,7.260965412383296,POINT (7.260965412383296 51.444157649999994)
Boise State University,"Boise State University, Idaho, United States",43.6031707,-116.20261074563308,POINT (-116.20261074563308 43.6031707)
University of South Alabama,"University of South Alabama, Alabama, United States",30.697247,-88.182276,POINT (-88.182276 30.697247)
NYU Tandon School of Engineering,"NYU Tandon School of Engineering, New York, United States",40.694692,-73.982965,POINT (-73.982965 40.694692)
"University of Duisburg, Essen","University of Duisburg, Essen, North Rhine-Westphilia, Germany",51.4122,7.06112,POINT (7.06112 51.4122)
Tennessee Technological University,"Tennessee Technological University, Tennessee, United States",36.17487355,-85.50890513995023,POINT (-85.50890513995023 36.17487355)
University of Siegen,"University of Siegen, North Rhine-Westphilia, Germany",52.4938798,13.4467241,POINT (13.4467241 52.4938798)
Virginia Polytechnic Institute and State University,"Virginia Polytechnic Institute and State University, Virginia, United States",37.22192675,-80.42728184013652,POINT (-80.42728184013652 37.22192675)
Victoria University,"Victoria University, Victoria, Australia",-37.707721,144.563897,POINT (144.563897 -37.707721)
University of North Dakota,"University of North Dakota, North Dakota, United States",47.926541150000006,-97.07212085037051,POINT (-97.07212085037051 47.926541150000006)
University of Tennessee at Chattanooga,"University of Tennessee at Chattanooga, Tennessee, United States",35.0457219,-85.3094883,POINT (-85.3094883 35.0457219)
University of Wyoming,"University of Wyoming, Wyoming, United States",41.317412,-105.576286,POINT (-105.576286 41.317412)
Embry Riddle Aeronautical University,"Embry Riddle Aeronautical University, Florida, United States",29.19175315,-81.04958387456502,POINT (-81.04958387456502 29.19175315)
The University of Maine,"The University of Maine, Maine, United States",46.8200431,-67.9230792,POINT (-67.9230792 46.8200431)
University of North Florida,"University of North Florida, Florida, United States",28.36746815,-81.28080685085058,POINT (-81.28080685085058 28.36746815)
"Washington State University, Tri-Cities","Washington State University, Tri-Cities, Washington, United States",46.3269918,-119.27297087295432,POINT (-119.27297087295432 46.3269918)
Charles Darwin University,"Charles Darwin University, Northern Territory, Australia",-12.37137375,130.86848336511576,POINT (130.86848336511576 -12.37137375)
"University of Alaska, Fairbanks","University of Alaska, Fairbanks, Alaska, United States",64.86534085,-147.8426097192497,POINT (-147.8426097192497 64.86534085)
McNeese State University,"McNeese State University, Louisiana, United States",30.18062475,-93.2162922183305,POINT (-93.2162922183305 30.18062475)
University of Exeter,"University of Exeter, Devon, United Kingdom",50.736872,-3.53358,POINT (-3.53358 50.736872)
Milwaukee School of Engineering,"Milwaukee School of Engineering, Wisconsin, United States",43.04576595,-87.9079361465609,POINT (-87.9079361465609 43.04576595)
Durham University,"Durham University, Durham, United Kingdom",54.774822400000005,-1.5643586354480097,POINT (-1.5643586354480097 54.774822400000005)
Loyola Marymount University,"Loyola Marymount University, California, United States",33.968782399999995,-118.41820210089406,POINT (-118.41820210089406 33.968782399999995)
Western New England University,"Western New England University, Massachusetts, United States",42.1125825,-72.51478135359363,POINT (-72.51478135359363 42.1125825)
Federation University Australia,"Federation University Australia, Victoria, Australia",-38.1651724,144.3377163,POINT (144.3377163 -38.1651724)
Waseda University,"Waseda University, Tokyo, Japan",35.70863,139.71958,POINT (139.71958 35.70863)
University of Victoria British Columbia,"University of Victoria British Columbia, British Columbia, Canada",48.46205995,-123.31141980604804,POINT (-123.31141980604804 48.46205995)
Jackson State University,"Jackson State University, Mississippi, United States",32.296409249999996,-90.20743755025683,POINT (-90.20743755025683 32.296409249999996)
Bucknell University,"Bucknell University, Pennsylvania, United States",40.95447,-76.878136,POINT (-76.878136 40.95447)
Montana Tech,"Montana Tech, Montana, United States",46.010778,-112.559847,POINT (-112.559847 46.010778)
University of Southern Queensland,"University of Southern Queensland, Queensland, Australia",-27.685222,152.90725,POINT (152.90725 -27.685222)
Université Grenoble-Alpes,"Université Grenoble-Alpes, Isère, France",45.19156085,5.76726385662386,POINT (5.76726385662386 45.19156085)
Merrimack College,"Merrimack College, Massachusetts, United States",42.67093,-71.12533,POINT (-71.12533 42.67093)
Luleå University of Technology,"Luleå University of Technology, Norrbottens l'n, Sweden",65.61809,22.14011,POINT (22.14011 65.61809)
University of Sherbrooke,"University of Sherbrooke, Sherbrooke, Canada",45.5044656,-73.5733077942731,POINT (-73.5733077942731 45.5044656)
Abertay University,"Abertay University, Dundee City, United Kingdom",56.4631526,-2.97467889452203,POINT (-2.97467889452203 56.4631526)
St Martin University,"St Martin University, Washington, United States",47.04343285,-122.81343957968636,POINT (-122.81343957968636 47.04343285)
Edinburgh Napier University,"Edinburgh Napier University, Edinburgh, United Kingdom",55.918428,-3.239493,POINT (-3.239493 55.918428)
The Hong Kong University of Science and Technology,"The Hong Kong University of Science and Technology, New Territories, Hong Kong",22.451497,114.177786,POINT (114.177786 22.451497)
University of Derby,"University of Derby, Derby, United Kingdom",52.937954700000006,-1.497999105195924,POINT (-1.497999105195924 52.937954700000006)
University of the West of Scotland,"University of the West of Scotland, London, United Kingdom",51.5100436,-0.0047661,POINT (-0.0047661 51.5100436)
Idaho State University,"Idaho State University, Idaho, United States",42.86256695,-112.43216272585818,POINT (-112.43216272585818 42.86256695)
"Technical University of Applied Sciences, Lübeck","Technical University of Applied Sciences, Lübeck, Lübeck, Germany",53.866444,10.684738,POINT (10.684738 53.866444)
"University of South Australia, Mawson Lakes","University of South Australia, Mawson Lakes, South Australia, Australia",-34.8088,138.62028,POINT (138.62028 -34.8088)
Canterbury Christ Church University,"Canterbury Christ Church University, Kent, United Kingdom",51.279182399999996,1.0903628318027239,POINT (1.0903628318027239 51.279182399999996)
CentraleSupelec,"CentraleSupelec, Chatenay-Malabry, France",48.7670404,2.2775316,POINT (2.2775316 48.7670404)
Northeastern University,"Northeastern University, Massachusetts, United States",42.33907025,-71.08783833987422,POINT (-71.08783833987422 42.33907025)
University of Bolton,"University of Bolton, Bolton, United Kingdom",53.57303145,-2.43779527237738,POINT (-2.43779527237738 53.57303145)
The University of Texas at Dallas,"The University of Texas at Dallas, Texas, United States",32.9785262,-96.7553288,POINT (-96.7553288 32.9785262)
"University of California, San Diego","University of California, San Diego, California, United States",32.87924375,-117.23112468377349,POINT (-117.23112468377349 32.87924375)
"University of California, Irvine","University of California, Irvine, California, United States",33.6458956,-117.842799,POINT (-117.842799 33.6458956)
"Rutgers University, New Brunswick","Rutgers University, New Brunswick, New Jersey, United States",40.49767855,-74.44600460895731,POINT (-74.44600460895731 40.49767855)
Rutgers University-New Brunswick,"Rutgers University-New Brunswick, New Jersey, United States",40.49955,-74.44432,POINT (-74.44432 40.49955)
"University of California, Davis","University of California, Davis, California, United States",38.533790350000004,-121.79075439946112,POINT (-121.79075439946112 38.533790350000004)
"University of Maryland, Baltimore County","University of Maryland, Baltimore County, Maryland, United States",39.289876,-76.625359,POINT (-76.625359 39.289876)
Georgia State University,"Georgia State University, Georgia, United States",33.792305,-84.233897,POINT (-84.233897 33.792305)
"Concordia University, Montreal","Concordia University, Montreal, Quebec, Canada",45.4952479,-73.57858216019235,POINT (-73.57858216019235 45.4952479)
"University of California, Santa Barbara","University of California, Santa Barbara, California, United States",34.414602450000004,-119.84581004701371,POINT (-119.84581004701371 34.414602450000004)
"California State University, East Bay","California State University, East Bay, California, United States",38.156711,-121.027576,POINT (-121.027576 38.156711)
"University of California,  Riverside","University of California,  Riverside, California, United States",33.9642567,-117.3397858271953,POINT (-117.3397858271953 33.9642567)
Simon Fraser University,"Simon Fraser University, British Columbia, Canada",49.2776616,-122.909535,POINT (-122.909535 49.2776616)
"Simon Fraser University, Burnaby","Simon Fraser University, Burnaby, British Columbia, Canada",49.276709600000004,-122.91780296438841,POINT (-122.91780296438841 49.276709600000004)
State University of New York at Binghamton,"State University of New York at Binghamton, New York, United States",42.08779975,-75.97066065614858,POINT (-75.97066065614858 42.08779975)
"Carleton University, Ottawa","Carleton University, Ottawa, Ottawa, Canada",45.3858581,-75.69500411688679,POINT (-75.69500411688679 45.3858581)
"University of California, Santa Cruz","University of California, Santa Cruz, California, United States",36.95940725,-122.05787141794443,POINT (-122.05787141794443 36.95940725)
"Rutgers University, Newark","Rutgers University, Newark, New Jersey, United States",40.74068705,-74.17488897617616,POINT (-74.17488897617616 40.74068705)
The George Washington University,"The George Washington University, District of Columbia, United States",38.90028,-77.05278,POINT (-77.05278 38.90028)
Indiana University - Purdue University Indianapolis,"Indiana University - Purdue University Indianapolis, Indiana, United States",39.774777349999994,-86.1769635756136,POINT (-86.1769635756136 39.774777349999994)
University of Houston - Clear Lake,"University of Houston - Clear Lake, Texas, United States",29.58157,-95.098296,POINT (-95.098296 29.58157)
Northern Illinois University,"Northern Illinois University, Illinois, United States",41.802579,-88.132281,POINT (-88.132281 41.802579)
"California State University, Northridge","California State University, Northridge, California, United States",34.238921,-118.529324,POINT (-118.529324 34.238921)
University of Rochester,"University of Rochester, New York, United States",43.122702,-77.63074,POINT (-77.63074 43.122702)
State University of New York (Albany),"State University of New York (Albany), New York, United States",42.6840271,-73.82587727551194,POINT (-73.82587727551194 42.6840271)
"University of Massachusetts, Boston","University of Massachusetts, Boston, Massachusetts, United States",42.314068,-71.03871320767618,POINT (-71.03871320767618 42.314068)
Pace University,"Pace University, New York, United States",40.7111164,-74.00480443918846,POINT (-74.00480443918846 40.7111164)
The University of Chicago,"The University of Chicago, Illinois, United States",41.79139685,-87.60084387193544,POINT (-87.60084387193544 41.79139685)
Wichita State University,"Wichita State University, Kansas, United States",37.71934295,-97.28988783173023,POINT (-97.28988783173023 37.71934295)
Wright State University,"Wright State University, Ohio, United States",39.78420385,-84.05677987138829,POINT (-84.05677987138829 39.78420385)
Brown University,"Brown University, Rhode Island, United States",41.8186395,-71.4088008716793,POINT (-71.4088008716793 41.8186395)
"California State University, Chico","California State University, Chico, California, United States",39.72949775,-121.84810531061476,POINT (-121.84810531061476 39.72949775)
The University of Central Missouri,"The University of Central Missouri, Missouri, United States",28.59899755,-81.19712501183949,POINT (-81.19712501183949 28.59899755)
University of San Francisco,"University of San Francisco, California, United States",37.7793627,-122.45144734976836,POINT (-122.45144734976836 37.7793627)
University of Illinois at Springfield,"University of Illinois at Springfield, Illinois, United States",39.7286596,-89.617929,POINT (-89.617929 39.7286596)
Case Western Reserve University,"Case Western Reserve University, Ohio, United States",41.502436,-81.60858,POINT (-81.60858 41.502436)
University of Iowa,"University of Iowa, Iowa, United States",41.631102350000006,-91.54075201642047,POINT (-91.54075201642047 41.631102350000006)
Texas A&M University - Corpus Christi,"Texas A&M University - Corpus Christi, Texas, United States",36.1979366,-76.0099227,POINT (-76.0099227 36.1979366)
Arkansas State University,"Arkansas State University, Arkansas, United States",35.63993,-91.18893,POINT (-91.18893 35.63993)
Western University,"Western University, Ontario, Canada",43.6628446,-79.39517302166654,POINT (-79.39517302166654 43.6628446)
Northwest Missouri State University,"Northwest Missouri State University, Missouri, United States",40.355654,-94.889652,POINT (-94.889652 40.355654)
University of Regina,"University of Regina, Saskatchewan, Canada",49.570798,-109.896455,POINT (-109.896455 49.570798)
University of Massachusetts Dartmouth,"University of Massachusetts Dartmouth, Massachusetts, United States",41.6295897,-71.0061861,POINT (-71.0061861 41.6295897)
Texas A&M University-Commerce,"Texas A&M University-Commerce, Texas, United States",36.1979366,-76.0099227,POINT (-76.0099227 36.1979366)
Texas State University,"Texas State University, Texas, United States",29.88816,-97.94123,POINT (-97.94123 29.88816)
University of Ontario Institute of Technology,"University of Ontario Institute of Technology, Ontario, Canada",49.259739,-84.756095,POINT (-84.756095 49.259739)
Alabama A&M University,"Alabama A&M University, Alabama, United States",42.8755355,-8.5439247,POINT (-8.5439247 42.8755355)
University of Oxford,"University of Oxford, Oxfordshire, United Kingdom",51.750690000000006,-1.247481719363849,POINT (-1.247481719363849 51.750690000000006)
Purdue University Northwest,"Purdue University Northwest, Indiana, United States",40.430028,-86.92642114650494,POINT (-86.92642114650494 40.430028)
"New York Institute of Technology, Old Westbury","New York Institute of Technology, Old Westbury, New York, United States",40.8114746,-73.6062057,POINT (-73.6062057 40.8114746)
Tufts University,"Tufts University, Massachusetts, United States",42.40649125,-71.11800725402092,POINT (-71.11800725402092 42.40649125)
Hamburg University of Technology,"Hamburg University of Technology, Hamburg, Germany",53.461,9.969226430380203,POINT (9.969226430380203 53.461)
Central Michigan University,"Central Michigan University, Michigan, United States",43.583549950000005,-84.7746403641781,POINT (-84.7746403641781 43.583549950000005)
University of New Hampshire,"University of New Hampshire, New Hampshire, United States",43.1335,-70.93883,POINT (-70.93883 43.1335)
"KTH, Royal Institute of Technology","KTH, Royal Institute of Technology, Stockholms l'n, Sweden",59.201676,17.62032,POINT (17.62032 59.201676)
Chicago State University,"Chicago State University, Illinois, United States",37.936437,-88.6094993,POINT (-88.6094993 37.936437)
Colorado School of Mines,"Colorado School of Mines, Colorado, United States",39.745525,-105.24,POINT (-105.24 39.745525)
Friedrich-Alexander-University Erlangen-Nürnberg,"Friedrich-Alexander-University Erlangen-Nürnberg, Bavaria, Germany",49.59668005,11.006476741375543,POINT (11.006476741375543 49.59668005)
Technical University of Dortmund,"Technical University of Dortmund, North Rhine-Westphilia, Germany",52.31925,13.63262,POINT (13.63262 52.31925)
"California State University, San Bernardino","California State University, San Bernardino, California, United States",34.1799047,-117.3263,POINT (-117.3263 34.1799047)
Concordia University - Ann Arbor,"Concordia University - Ann Arbor, Michigan, United States",42.30731935,-83.69392523197419,POINT (-83.69392523197419 42.30731935)
Australian National University,"Australian National University, Australian Capital Territory, Australia",-35.282034,149.116584,POINT (149.116584 -35.282034)
Brock University,"Brock University, Ontario, Canada",43.11773545,-79.24985683064051,POINT (-79.24985683064051 43.11773545)
Western Illinois University,"Western Illinois University, Illinois, United States",40.4723261,-90.6753759,POINT (-90.6753759 40.4723261)
Georgetown University,"Georgetown University, District of Columbia, United States",38.90893925,-77.07457962060826,POINT (-77.07457962060826 38.90893925)
Indiana State University,"Indiana State University, Indiana, United States",37.96226,-87.67641,POINT (-87.67641 37.96226)
State University of New York Polytechnic Institute,"State University of New York Polytechnic Institute, New York, United States",43.13800205,-75.2294359077068,POINT (-75.2294359077068 43.13800205)
Eastern Michigan University,"Eastern Michigan University, Michigan, United States",42.252437,-83.6335,POINT (-83.6335 42.252437)
Fairleigh Dickinson University,"Fairleigh Dickinson University, New Jersey, United States",40.89807275,-74.0307211402726,POINT (-74.0307211402726 40.89807275)
University of Adelaide,"University of Adelaide, South Australia, Australia",-34.9189226,138.60423667410745,POINT (138.60423667410745 -34.9189226)
Seattle University,"Seattle University, Washington, United States",47.60950425,-122.31879829702284,POINT (-122.31879829702284 47.60950425)
State University of New York at New Paltz,"State University of New York at New Paltz, New York, United States",41.738503449999996,-74.08578931793295,POINT (-74.08578931793295 41.738503449999996)
Northeastern Illinois University,"Northeastern Illinois University, Illinois, United States",41.98026885,-87.71848507961145,POINT (-87.71848507961145 41.98026885)
University of Denver,"University of Denver, Colorado, United States",39.67831365,-104.96250921815401,POINT (-104.96250921815401 39.67831365)
University of Missouri-St. Louis,"University of Missouri-St. Louis, Missouri, United States",38.708507,-90.308282,POINT (-90.308282 38.708507)
Concordia University of Edmonton,"Concordia University of Edmonton, Alberta, Canada",53.5607569,-113.44572290714713,POINT (-113.44572290714713 53.5607569)
Rowan University,"Rowan University, New Jersey, United States",39.7103526,-75.1193266647699,POINT (-75.1193266647699 39.7103526)
Grand Valley State University,"Grand Valley State University, Michigan, United States",42.9645209,-85.6801556,POINT (-85.6801556 42.9645209)
"City University Of New York, Brooklyn College","City University Of New York, Brooklyn College, New York, United States",40.63149,-73.95153,POINT (-73.95153 40.63149)
"California State University, San Marcos","California State University, San Marcos, California, United States",33.1295667,-117.1606492322195,POINT (-117.1606492322195 33.1295667)
Governors State University,"Governors State University, Illinois, United States",41.446905900000004,-87.71945595440988,POINT (-87.71945595440988 41.446905900000004)
University of Northern British Columbia,"University of Northern British Columbia, British Columbia, Canada",49.26094,-123.24713,POINT (-123.24713 49.26094)
"California State University, Dominguez Hills","California State University, Dominguez Hills, California, United States",34.1799047,-117.3263,POINT (-117.3263 34.1799047)
University of North Carolina at Greensboro,"University of North Carolina at Greensboro, North Carolina, United States",36.063264,-79.810966,POINT (-79.810966 36.063264)
Dakota State University,"Dakota State University, South Dakota, United States",44.347967,-96.798171,POINT (-96.798171 44.347967)
Albert Ludwig University of Freiburg,"Albert Ludwig University of Freiburg, Baden-Warttemberg, Germany",48.796981,8.310944,POINT (8.310944 48.796981)
Braunschweig University of Technology,"Braunschweig University of Technology, Lower Saxony, Germany",52.2734144,10.5253983,POINT (10.5253983 52.2734144)
Technical University of Kaiserslautern,"Technical University of Kaiserslautern, Rhineland-Palatinate, Germany",52.31925,13.63262,POINT (13.63262 52.31925)
"California State University, Channel Islands","California State University, Channel Islands, California, United States",34.16726894999999,-119.04511795569039,POINT (-119.04511795569039 34.16726894999999)
"University of Nebraska, Omaha","University of Nebraska, Omaha, Nebraska, United States",41.257793250000006,-96.01049708374254,POINT (-96.01049708374254 41.257793250000006)
Clarkson University,"Clarkson University, New York, United States",44.65958875,-75.00623974830918,POINT (-75.00623974830918 44.65958875)
University of Quebec in Montreal,"University of Quebec in Montreal, Quebec, Canada",45.5031824,-73.5698065,POINT (-73.5698065 45.5031824)
Adelphi University,"Adelphi University, New York, United States",40.7197638,-73.65197185396391,POINT (-73.65197185396391 40.7197638)
"University of Washington, Tacoma","University of Washington, Tacoma, Washington, United States",47.245217499999995,-122.43981965250066,POINT (-122.43981965250066 47.245217499999995)
Nova Southeastern University,"Nova Southeastern University, Florida, United States",26.0800886,-80.2485465,POINT (-80.2485465 26.0800886)
Leibniz University of Hannover,"Leibniz University of Hannover, Lower Saxony, Germany",52.37723,9.723433,POINT (9.723433 52.37723)
University of Colorado at Colorado Springs,"University of Colorado at Colorado Springs, Colorado, United States",38.895908,-104.801865,POINT (-104.801865 38.895908)
"University of Nevada, Reno","University of Nevada, Reno, Nevada, United States",39.5442688,-119.81631051527071,POINT (-119.81631051527071 39.5442688)
National University,"National University, California, United States",32.873459350000005,-117.2150416717414,POINT (-117.2150416717414 32.873459350000005)
Virginia Commonwealth University,"Virginia Commonwealth University, Virginia, United States",38.037659,-78.526541,POINT (-78.526541 38.037659)
"University of Washington, Bothell","University of Washington, Bothell, Washington, United States",47.75948765,-122.19100770512512,POINT (-122.19100770512512 47.75948765)
Sacred Heart University,"Sacred Heart University, Connecticut, United States",41.222532,-73.242354,POINT (-73.242354 41.222532)
University of Bonn,"University of Bonn, North Rhine-Westphilia, Germany",50.7338124,7.1022465,POINT (7.1022465 50.7338124)
Bridgewater State University,"Bridgewater State University, Massachusetts, United States",41.988295750000006,-70.96359255813647,POINT (-70.96359255813647 41.988295750000006)
Fordham University,"Fordham University, New York, United States",40.862201,-73.901566,POINT (-73.901566 40.862201)
Humboldt University of Berlin,"Humboldt University of Berlin, Berlin, Germany",52.5183402,13.392920232320172,POINT (13.392920232320172 52.5183402)
St. Cloud State University,"St. Cloud State University, Minnesota, United States",45.54781165,-94.15122845517467,POINT (-94.15122845517467 45.54781165)
Emory University,"Emory University, Georgia, United States",33.801725,-84.322259,POINT (-84.322259 33.801725)
University of the Pacific,"University of the Pacific, California, United States",37.98042375,-121.31284719832666,POINT (-121.31284719832666 37.98042375)
Howard University,"Howard University, District of Columbia, United States",38.922334,-77.019421,POINT (-77.019421 38.922334)
Southeast Missouri State University,"Southeast Missouri State University, Missouri, United States",36.895823,-89.349832,POINT (-89.349832 36.895823)
University of Arkansas at Little Rock,"University of Arkansas at Little Rock, Arkansas, United States",34.72236805,-92.33830255268586,POINT (-92.33830255268586 34.72236805)
University of Central Oklahoma,"University of Central Oklahoma, Oklahoma, United States",35.655730250000005,-97.47032859449375,POINT (-97.47032859449375 35.655730250000005)
University of Houston-Victoria,"University of Houston-Victoria, Texas, United States",29.58157,-95.098296,POINT (-95.098296 29.58157)
"California Polytechnic State University, San Luis Obispo","California Polytechnic State University, San Luis Obispo, California, United States",35.3074623,-120.66464833678835,POINT (-120.66464833678835 35.3074623)
Loyola University Chicago,"Loyola University Chicago, Ohio, United States",41.999149200000005,-87.65737041681818,POINT (-87.65737041681818 41.999149200000005)
Oklahoma City University,"Oklahoma City University, Oklahoma, United States",35.496315249999995,-97.54122412051667,POINT (-97.54122412051667 35.496315249999995)
Texas Southern University,"Texas Southern University, Texas, United States",29.3585067,-94.9468174,POINT (-94.9468174 29.3585067)
Northeastern University - Silicon Valley,"Northeastern University - Silicon Valley, California, United States",37.257214,-121.7863419,POINT (-121.7863419 37.257214)
Appalachian State University,"Appalachian State University, North Carolina, United States",36.21135245,-81.68609129533857,POINT (-81.68609129533857 36.21135245)
The University of Southern Mississippi,"The University of Southern Mississippi, Mississippi, United States",30.3528503,-89.13778308631831,POINT (-89.13778308631831 30.3528503)
Northwestern Polytechnic University,"Northwestern Polytechnic University, California, United States",37.47815,-121.925581,POINT (-121.925581 37.47815)
Baylor University,"Baylor University, Texas, United States",31.55043405,-97.1102905567766,POINT (-97.1102905567766 31.55043405)
"City University Of New York, Queens College","City University Of New York, Queens College, New York, United States",40.73694,-73.81917,POINT (-73.81917 40.73694)
"Eberhard Karls University, Tübingen","Eberhard Karls University, Tübingen, Baden-Warttemberg, Germany",53.079519,8.924751,POINT (8.924751 53.079519)
College of William & Mary,"College of William & Mary, Virginia, United States",37.269093350000006,-76.7220488639414,POINT (-76.7220488639414 37.269093350000006)
Clausthal University of Technology,"Clausthal University of Technology, Lower Saxony, Germany",51.80195535,10.34550527586038,POINT (10.34550527586038 51.80195535)
Acadia University,"Acadia University, Nova Scotia, Canada",44.647964,-63.569969,POINT (-63.569969 44.647964)
University of Lethbridge,"University of Lethbridge, Alberta, Canada",53.52682,-113.5244937350756,POINT (-113.5244937350756 53.52682)
Duquesne University,"Duquesne University, Pennsylvania, United States",40.4391842,-80.0181104,POINT (-80.0181104 40.4391842)
Troy University,"Troy University, Alabama, United States",31.80222345,-85.95568668214796,POINT (-85.95568668214796 31.80222345)
"Washington State University, Vancouver","Washington State University, Vancouver, Washington, United States",45.73100425,-122.63391778834932,POINT (-122.63391778834932 45.73100425)
University of Paderborn,"University of Paderborn, North Rhine-Westphilia, Germany",51.70752095,8.772414074164182,POINT (8.772414074164182 51.70752095)
"University of British Columbia, Okanagan","University of British Columbia, Okanagan, British Columbia, Canada",49.9395,-119.39632,POINT (-119.39632 49.9395)
Colorado Technical University,"Colorado Technical University, Colorado, United States",38.893413,-104.833455,POINT (-104.833455 38.893413)
Bowie State University,"Bowie State University, Maryland, United States",39.018388099999996,-76.76095116835239,POINT (-76.76095116835239 39.018388099999996)
Uppsala University,"Uppsala University, Uppsala l'n, Sweden",59.85519,17.63149,POINT (17.63149 59.85519)
Northeastern University-Seattle,"Northeastern University-Seattle, Washington, United States",47.6230201,-122.3373546,POINT (-122.3373546 47.6230201)
University of Tulsa,"University of Tulsa, Oklahoma, United States",36.1523306,-95.94596023877983,POINT (-95.94596023877983 36.1523306)
Columbus State University,"Columbus State University, Georgia, United States",32.50189,-84.94150463877905,POINT (-84.94150463877905 32.50189)
University of Ulm,"University of Ulm, Baden-Warttemberg, Germany",48.796981,8.310944,POINT (8.310944 48.796981)
Clark University,"Clark University, Massachusetts, United States",32.84461445,-96.7825529,POINT (-96.7825529 32.84461445)
Marquette University,"Marquette University, Wisconsin, United States",43.039244,-87.93151,POINT (-87.93151 43.039244)
University of Rostock,"University of Rostock, Mecklenburg-Vorpommern, Germany",50.130444,8.671862,POINT (8.671862 50.130444)
University of Kiel (Christian-Albrechts),"University of Kiel (Christian-Albrechts), Schleswig-Holstein, Germany",52.4938798,13.4467241,POINT (13.4467241 52.4938798)
Ilmenau University of Technology,"Ilmenau University of Technology, Thuringia, Germany",50.68250285,10.9365062591177,POINT (10.9365062591177 50.68250285)
Brandeis University,"Brandeis University, Massachusetts, United States",42.36676,-71.25783,POINT (-71.25783 42.36676)
Hofstra University,"Hofstra University, New York, United States",40.715721,-73.601459,POINT (-73.601459 40.715721)
St. Francis Xavier University,"St. Francis Xavier University, Nova Scotia, Canada",49.26661,-123.095549,POINT (-123.095549 49.26661)
Central Connecticut State University,"Central Connecticut State University, Connecticut, United States",41.881086,-72.802594,POINT (-72.802594 41.881086)
University of Hawaii at Manoa,"University of Hawaii at Manoa, Hawaii, United States",19.70667,-155.08278,POINT (-155.08278 19.70667)
"Heidelberg University, Ruperto Carola","Heidelberg University, Ruperto Carola, Baden-Warttemberg, Germany",48.796981,8.310944,POINT (8.310944 48.796981)
East Carolina University,"East Carolina University, North Carolina, United States",35.6023405,-77.3620873,POINT (-77.3620873 35.6023405)
The University of Rhode Island,"The University of Rhode Island, Rhode Island, United States",41.487296900000004,-71.5344649840152,POINT (-71.5344649840152 41.487296900000004)
St. John's University,"St. John's University, New York, United States",40.674762,-73.935018,POINT (-73.935018 40.674762)
University of Texas Rio Grande Valley,"University of Texas Rio Grande Valley, Texas, United States",26.30715335,-98.17281873206672,POINT (-98.17281873206672 26.30715335)
University of Maryland Eastern Shore,"University of Maryland Eastern Shore, Maryland, United States",38.21403735,-75.68287648503558,POINT (-75.68287648503558 38.21403735)
Edith Cowan University,"Edith Cowan University, Western Australia, Australia",-31.919281599999998,115.86912150103211,POINT (115.86912150103211 -31.919281599999998)
"City University Of New York, Staten Island","City University Of New York, Staten Island, New York, United States",40.82093,-73.95292,POINT (-73.95292 40.82093)
Montclair State University,"Montclair State University, New Jersey, United States",40.864687849999996,-74.19692131823484,POINT (-74.19692131823484 40.864687849999996)
University of Texas - Pan American,"University of Texas - Pan American, Texas, United States",26.30979,-98.17418,POINT (-98.17418 26.30979)
Midwestern State University,"Midwestern State University, Texas, United States",33.871199149999995,-98.522129626549,POINT (-98.522129626549 33.871199149999995)
University of North America,"University of North America, Virginia, United States",30.268986499999997,-81.50965611064404,POINT (-81.50965611064404 30.268986499999997)
"Missouri State University, Springfield","Missouri State University, Springfield, Missouri, United States",37.2017202,-93.28077135844916,POINT (-93.28077135844916 37.2017202)
University of South Dakota,"University of South Dakota, South Dakota, United States",42.79137035,-96.92542348265259,POINT (-96.92542348265259 42.79137035)
University of New Orleans,"University of New Orleans, Louisiana, United States",29.912536,-89.99752,POINT (-89.99752 29.912536)
University of Bayreuth,"University of Bayreuth, Bavaria, Germany",49.9270796,11.587226615128671,POINT (11.587226615128671 49.9270796)
University of Leicester,"University of Leicester, Leicester, United Kingdom",52.62446355,-1.1257301398551323,POINT (-1.1257301398551323 52.62446355)
University of Potsdam,"University of Potsdam, Brandenburg, Germany",52.3888479,13.1197939,POINT (13.1197939 52.3888479)
Maharishi University of Management,"Maharishi University of Management, Iowa, United States",41.023532,-91.96396696626837,POINT (-91.96396696626837 41.023532)
American University,"American University, Washington, United States",38.93804505,-77.08939223651926,POINT (-77.08939223651926 38.93804505)
The University of Vermont,"The University of Vermont, Vermont, United States",44.47837,-73.20135,POINT (-73.20135 44.47837)
Western Kentucky University,"Western Kentucky University, Kentucky, United States",37.090422,-85.305159,POINT (-85.305159 37.090422)
East Tennessee State University,"East Tennessee State University, Tennessee, United States",36.3022214,-82.36945750910178,POINT (-82.36945750910178 36.3022214)
Delaware State University,"Delaware State University, Delaware, United States",39.18528,-75.5475,POINT (-75.5475 39.18528)
"Charles Sturt University, Bathhurst","Charles Sturt University, Bathhurst, New South Wales, Australia",-33.43081165,149.56194481628086,POINT (149.56194481628086 -33.43081165)
Linköping University,"Linköping University, Östergötland, Sweden",58.3977911,15.57545441574208,POINT (15.57545441574208 58.3977911)
City University of Seattle,"City University of Seattle, Washington, United States",47.6177084,-122.3444624,POINT (-122.3444624 47.6177084)
Leipzig University,"Leipzig University, Sohag, Germany",51.33845385,12.37863856850984,POINT (12.37863856850984 51.33845385)
Roosevelt University,"Roosevelt University, Illinois, United States",42.055781,-88.037248,POINT (-88.037248 42.055781)
"University of New England, Australia","University of New England, Australia, New South Wales, Australia",-31.95260295,152.55512735272188,POINT (152.55512735272188 -31.95260295)
"Northeastern University, Vancouver","Northeastern University, Vancouver, British Columbia, Canada",49.2805472,-123.1158204,POINT (-123.1158204 49.2805472)
South Dakota School of Mines and Technology,"South Dakota School of Mines and Technology, South Dakota, United States",33.948585,-79.028381,POINT (-79.028381 33.948585)
Bishops University,"Bishops University, Quebec, Canada",46.8137431,-71.2084061,POINT (-71.2084061 46.8137431)
University of Otago,"University of Otago, Otago, New Zealand",-45.864649,170.510747,POINT (170.510747 -45.864649)
Middle Tennessee State University,"Middle Tennessee State University, Tennessee, United States",35.84860085,-86.36090357044624,POINT (-86.36090357044624 35.84860085)
Wake Forest University,"Wake Forest University, North Carolina, United States",36.038195,-78.949467,POINT (-78.949467 36.038195)
Marist College,"Marist College, New York, United States",40.780997,-73.841567,POINT (-73.841567 40.780997)
Rivier University,"Rivier University, New Hampshire, United States",42.739333,-71.455044,POINT (-71.455044 42.739333)
University of Geneva,"University of Geneva, Geneva, Switzerland",46.19954,6.14239,POINT (6.14239 46.19954)
Shippensburg University of Pennsylvania,"Shippensburg University of Pennsylvania, Pennsylvania, United States",40.05815,-77.52221,POINT (-77.52221 40.05815)
"City University Of New York, Lehman College","City University Of New York, Lehman College, New York, United States",40.8722825,-73.8948917141949,POINT (-73.8948917141949 40.8722825)
James Madison University,"James Madison University, Virginia, United States",38.035053,-78.517793,POINT (-78.517793 38.035053)
University of the Bundeswehr Munich,"University of the Bundeswehr Munich, Bavaria, Germany",48.1371079,11.5753822,POINT (11.5753822 48.1371079)
Lewis University,"Lewis University, Illinois, United States",38.6578483,-90.31617307219159,POINT (-90.31617307219159 38.6578483)
New Mexico Institute of Mining and Technology,"New Mexico Institute of Mining and Technology, New Mexico, United States",39.604434749999996,-76.9516955197142,POINT (-76.9516955197142 39.604434749999996)
University of West Georgia,"University of West Georgia, Georgia, United States",31.48119265,-83.52225572430962,POINT (-83.52225572430962 31.48119265)
Eastern Washington University,"Eastern Washington University, Washington, United States",38.927739,-77.003609,POINT (-77.003609 38.927739)
Monmouth University,"Monmouth University, Illinois, United States",40.9144918,-90.63839026946083,POINT (-90.63839026946083 40.9144918)
